temperature,pressure,humidity,red,green,blue,clear,yaw,pitch,roll,magnetometer_x,magnetometer_y,magnetometer_z,accelerometer_x,accelerometer_y,accelerometer_z,gyroscope_x,gyroscope_y,gyroscope_z,datetime,iss_latitude,iss_longitude,iss_altitude_km,speed
31.293102264404297,1020.126708984375,32.9232063293457,0,0,0,0,8.566736591958167,329.76653305405915,66.188487736953,11.599960327148438,0.46034136414527893,1.7595553398132324,0.019153228029608727,0.028892317786812782,0.01096635777503252,-0.030754830688238144,-0.01991415023803711,0.005802486091852188,2026-04-21 20:03:10.137756,38.73156482369019,-150.8464589034741,426.00218273769315,7.657947152186705
31.382003784179688,1020.12353515625,32.736572265625,0,0,0,0,7.0702075669757,328.62217583975854,64.25561933392025,23.81862449645996,0.7503377199172974,3.5468368530273438,0.019638117402791977,0.027192767709493637,0.010722661390900612,-0.026730593293905258,-0.017766736447811127,0.005691979080438614,2026-04-21 20:03:11.888479,38.65286741829226,-150.72389998887297,426.01925820658835,7.6579424961291
31.310882568359375,1020.119140625,32.510162353515625,0,0,0,0,5.508552688257161,327.3598373528297,62.29698745733823,29.178659439086914,0.8988837003707886,3.8364827632904053,0.018425889313220978,0.027921147644519806,0.010722661390900612,-0.024067804217338562,-0.017497703433036804,0.007095174863934517,2026-04-21 20:03:13.800440,38.574023085579704,-150.60162711488474,426.03634204283026,7.657937914555252
31.293102264404297,1020.129638671875,32.70291519165039,0,0,0,0,4.336394896487301,326.16709166335414,61.00368430780715,31.106359481811523,0.863727331161499,4.672467231750488,0.018668334931135178,0.029377900063991547,0.01364702358841896,-0.02214130386710167,-0.01784706860780716,0.008176662027835846,2026-04-21 20:03:15.545220,38.49503254824099,-150.4796393782315,426.0534340933882,7.657933341114415
31.310882568359375,1020.11083984375,32.56217575073242,0,0,0,0,3.4599159938872917,325.04688599795867,59.87024173580021,31.77090835571289,1.1139333248138428,4.799368381500244,0.020123012363910675,0.028649523854255676,0.009991570375859737,-0.02360854297876358,-0.013483487069606781,0.003801552578806877,2026-04-21 20:03:17.295591,38.41589652607436,-150.3579358735499,426.0705342051042,7.65792877539083
31.20420265197754,1020.1328125,32.259273529052734,0,0,0,0,2.4478868645665024,323.83085277850796,58.96574027458293,32.21889114379883,1.148925542831421,4.337027549743652,0.01648632250726223,0.029377900063991547,0.009504176676273346,-0.021819811314344406,-0.016104228794574738,0.006446508690714836,2026-04-21 20:03:19.166335,38.37627418232829,-150.29719042471442,426.0790872359994,7.657926570638874
31.27532386779785,1020.12890625,32.27151107788086,0,0,0,0,1.8084183009302863,323.1214932369725,58.218906900166225,32.363956451416016,0.49270468950271606,4.434224605560303,0.019880564883351326,0.02840672992169857,0.011697448790073395,-0.021610550582408905,-0.011829487979412079,0.005123034119606018,2026-04-21 20:03:20.911859,38.29692127622848,-150.17591156601202,426.09619915202165,7.65792194160107
31.27532386779785,1020.11767578125,32.690677642822266,0,0,0,0,1.1092267766348904,322.7346381525722,57.89316151826998,32.432376861572266,0.7735386490821838,4.73443603515625,0.01769855059683323,0.02840672992169857,0.012672236189246178,-0.02005801349878311,-0.012771658599376678,0.006067480891942978,2026-04-21 20:03:22.654991,38.21742467217917,-150.05491466716347,426.11331874580173,7.657917395308187
31.257543563842773,1020.12109375,32.39389419555664,0,0,0,0,0.5566224777896339,322.21391477553414,56.98721205694866,32.39099884033203,1.0407872200012207,5.16109561920166,0.017940998077392578,0.02913510985672474,0.012915932573378086,-0.017262641340494156,-0.010097935795783997,0.00510304793715477,2026-04-21 20:03:24.535055,38.137785079891714,-149.93419881604234,426.13044586378055,7.657912856630944
31.257543563842773,1020.126953125,32.60500717163086,0,0,0,0,0.3367304871961707,321.75728247857296,56.69705196062817,32.10319900512695,0.8842840194702148,5.157477378845215,0.018910780549049377,0.02986348792910576,0.013890719972550869,-0.015821252018213272,-0.007820196449756622,0.003902968019247055,2026-04-21 20:03:26.276479,38.05800320620631,-149.81376309875793,426.1475803522999,7.657908325194399
31.221982955932617,1020.151611328125,32.592769622802734,0,0,0,0,0.10864359027980124,321.57251220114574,56.857226726854144,32.15776824951172,0.6989083886146545,4.351952075958252,0.018910780549049377,0.02840672992169857,0.013403326272964478,-0.016665101051330566,-0.010772302746772766,0.0036473795771598816,2026-04-21 20:03:28.028002,38.01805913394089,-149.7536500042467,426.156150312464,7.657906145998758
31.310882568359375,1020.125,32.60806655883789,0,0,0,0,359.51836910395485,321.3628185634372,57.03867411725012,32.42025375366211,0.949166476726532,4.130523204803467,0.017940998077392578,0.028892317786812782,0.011697448790073395,-0.01413966715335846,-0.0085897296667099,0.003092179074883461,2026-04-21 20:03:29.885345,37.93806515720756,-149.63363277048308,426.17329556843833,7.657901541671434
31.310882568359375,1020.125732421875,32.31434631347656,0,0,0,0,359.55572242134986,321.5927466365619,56.76616664483954,32.78386688232422,0.8346675038337708,4.398911952972412,0.018910780549049377,0.026707183569669724,0.010478964075446129,-0.012272961437702179,-0.009542040526866913,0.005020935088396072,2026-04-21 20:03:31.636857,37.857930653630596,-149.51389337856722,426.19044781033244,7.657897028235495
31.34644317626953,1020.12646484375,32.650901794433594,0,0,0,0,359.64257353269056,321.5123723855038,56.424278110839964,32.988739013671875,0.5784554481506348,4.25925874710083,0.020365456119179726,0.028649523854255676,0.009747873991727829,-0.012270014733076096,-0.008640304207801819,0.0026789549738168716,2026-04-21 20:03:33.380529,37.777656320027326,-149.39443090898317,426.2076068841234,7.657892521683677
31.239763259887695,1020.094970703125,32.436729431152344,0,0,0,0,359.6360953917475,321.2189611191384,56.47101026514119,32.64622497558594,0.7845983505249023,4.623898029327393,0.018668334931135178,0.029620693996548653,0.010478964075446129,-0.01150565966963768,-0.008684106171131134,0.002458849921822548,2026-04-21 20:03:35.268904,37.69724285035893,-149.2752444407623,426.22477263567816,7.65788802198476
31.36422348022461,1020.108642578125,32.62030792236328,0,0,0,0,359.57892147903095,321.4172824918789,56.92886175086924,32.508243560791016,0.8617902398109436,4.642404079437256,0.019395673647522926,0.028163937851786613,0.01023526769131422,-0.008718501776456833,-0.0075938403606414795,0.0014111567288637161,2026-04-21 20:03:37.018758,37.65698415558524,-149.21575441897843,426.2333579674287,7.65788586598377
31.36422348022461,1020.104248046875,32.49180221557617,0,0,0,0,359.520518585831,321.4374998518221,57.290400739110936,32.50788116455078,0.7922049760818481,4.081525802612305,0.019153228029608727,0.028163937851786613,0.012428538873791695,-0.00954856351017952,-0.006205499172210693,0.002775738015770912,2026-04-21 20:03:38.764819,37.57636327676707,-149.09698022297857,426.25053344643675,7.657881284812369
31.382003784179688,1020.11474609375,32.70597457885742,0,0,0,0,359.491042477581,321.5015977620881,57.64153734924671,32.54363250732422,0.4029570519924164,3.997457504272461,0.018668334931135178,0.02694997750222683,0.011453751474618912,-0.004733677953481674,-0.00876714289188385,0.0020227916538715363,2026-04-21 20:03:40.616480,37.49560498433609,-148.97847972000594,426.2677152174829,7.657876801565903
31.453125,1020.133544921875,32.32964324951172,0,0,0,0,359.6123520000061,321.5118703665998,57.672942559050426,32.453304290771484,0.19827806949615479,4.28609037399292,0.018910780549049377,0.029377900063991547,0.01364702358841896,-0.008118920028209686,-0.007806077599525452,0.0021905750036239624,2026-04-21 20:03:42.361416,37.41470996230249,-148.8602519845316,426.2849031261094,7.657872324831474
31.34644317626953,1020.1259765625,32.595829010009766,0,0,0,0,359.6248474042058,321.70922868266734,57.79775743594324,32.1912727355957,0.2892360985279083,4.179014205932617,0.018910780549049377,0.03059186413884163,0.010722661390900612,-0.007262278348207474,-0.0037506744265556335,0.0020716246217489243,2026-04-21 20:03:44.096682,37.37421139066535,-148.80124011506288,426.2934993337194,7.65787018538919
31.36422348022461,1020.138671875,32.33270263671875,0,0,0,0,359.964868168282,321.9196224147658,57.99075126113112,32.203250885009766,0.13109883666038513,4.6056952476501465,0.018668334931135178,0.02840672992169857,0.011697448790073395,-0.005870692431926727,-0.005887195467948914,0.0019653476774692535,2026-04-21 20:03:45.976486,37.29311255056281,-148.68341979296252,426.3106961589219,7.657865620933833
31.328662872314453,1020.145751953125,32.46120834350586,0,0,0,0,0.1718676632188474,322.0843973133978,58.07173681411996,32.19852828979492,0.17475314438343048,4.723951816558838,0.019153228029608727,0.027921147644519806,0.011941145174205303,-0.005637705326080322,-0.0016622394323349,0.0009505078196525574,2026-04-21 20:03:47.712467,37.21187867851525,-148.56586991961234,426.3278987351787,7.657861159473176
31.27532386779785,1020.11376953125,32.748809814453125,0,0,0,0,0.2929984668074451,322.32869268944165,58.686733877177076,32.156883239746094,1.0272657871246338,4.699149131774902,0.017940998077392578,0.02913510985672474,0.013890719972550869,-0.0070644766092300415,-0.005604550242424011,0.0017837174236774445,2026-04-21 20:03:49.449413,37.13051044865232,-148.4485895657144,426.34510690773277,7.657856703638389
31.27532386779785,1020.121337890625,32.40919494628906,0,0,0,0,0.5447315986923177,322.43610765942384,58.73628006941635,32.55576705932617,0.6527198553085327,4.8206305503845215,0.019638117402791977,0.029620693996548653,0.013159629888832569,-0.004223637282848358,-0.004080727696418762,0.00015570595860481262,2026-04-21 20:03:51.299920,37.04900853229052,-148.33157780102044,426.36232052175274,7.657852253667304
31.36422348022461,1020.11572265625,32.357181549072266,0,0,0,0,0.7299839380645174,322.5518691205718,59.01776582549092,32.55095291137695,0.34327828884124756,4.292341232299805,0.019638117402791977,0.028649523854255676,0.013159629888832569,-0.007987022399902344,-0.004344440996646881,0.0033095013350248337,2026-04-21 20:03:53.035864,37.00820765069163,-148.273172348679,426.37092932090036,7.657850134512461
31.399784088134766,1020.1005859375,32.43061065673828,0,0,0,0,1.0202854406451596,322.620054899056,59.177544440745024,32.60181427001953,0.2913893461227417,4.156144142150879,0.01769855059683323,0.02840672992169857,0.011941145174205303,-0.0066722482442855835,-0.0025979429483413696,0.0007550138980150223,2026-04-21 20:03:54.763812,36.92650645716541,-148.1565617216627,426.38815080661516,7.657845589518451
31.399784088134766,1020.12939453125,32.54381561279297,0,0,0,0,0.943537166262665,322.71881601935985,59.50470367179947,32.292301177978516,0.2869746685028076,4.287044048309326,0.019395673647522926,0.0276783537119627,0.013159629888832569,-0.0012097805738449097,-0.0028798729181289673,0.0012763459235429764,2026-04-21 20:03:56.600528,36.84467324317457,-148.0402173545108,426.40537734634836,7.657841153424705
31.293102264404297,1020.114501953125,32.347999572753906,0,0,0,0,1.276756375936494,322.94821816791847,59.658676626259066,32.320068359375,0.4124884009361267,4.602344036102295,0.019395673647522926,0.029377900063991547,0.013403326272964478,-0.003705151379108429,-0.0032523348927497864,0.002108803018927574,2026-04-21 20:03:58.345594,36.76270867024463,-147.92413831414535,426.4226087849938,7.657836722781703
31.453125,1020.12255859375,32.259273529052734,0,0,0,0,1.7097061658894406,323.203387205121,59.71790119655225,32.26227951049805,-0.1688569188117981,4.692990303039551,0.018668334931135178,0.02622159756720066,0.012915932573378086,-0.0024872682988643646,-0.002728082239627838,0.0011590812355279922,2026-04-21 20:04:00.088163,36.72167733014376,-147.8661979997369,426.4312262929143,7.657834617408655
31.382003784179688,1020.09130859375,32.55299377441406,0,0,0,0,2.1439536917846898,323.3569571784195,59.787664748734755,32.03415298461914,0.1886633038520813,4.875860691070557,0.020607901737093925,0.02913510985672474,0.012428538873791695,-0.0021804794669151306,-0.001092664897441864,0.00019793584942817688,2026-04-21 20:04:01.932114,36.63951695308148,-147.75051519857703,426.4484647889449,7.657830086379303
31.27532386779785,1020.083251953125,32.42449188232422,0,0,0,0,2.2300140753268507,323.66036784172985,60.24655100812206,32.27757263183594,0.2738381028175354,4.725347995758057,0.01745610684156418,0.027921147644519806,0.013403326272964478,-0.0061269961297512054,-0.0027542859315872192,0.0007752161473035812,2026-04-21 20:04:03.662610,36.5572268587365,-147.63509538868325,426.4657077958,7.657825668325801
31.36422348022461,1020.092529296875,32.442848205566406,0,0,0,0,2.434401082937135,323.88750236748405,60.558492577705714,32.41321563720703,0.289069265127182,4.770873546600342,0.020850349217653275,0.027921147644519806,0.011697448790073395,-0.003752049058675766,-0.001082584261894226,0.0007747840136289597,2026-04-21 20:04:05.407185,36.47480769892312,-147.5199376348492,426.4829551581406,7.6578212552362
31.328662872314453,1020.08203125,32.37553787231445,0,0,0,0,2.9126097340429964,324.10512926991356,60.258387725953696,32.58032989501953,-0.017791232094168663,4.614292144775391,0.01600143127143383,0.028163937851786613,0.011697448790073395,-0.001995433121919632,-0.0018376559019088745,0.00042386166751384735,2026-04-21 20:04:07.242865,36.39226012269768,-147.4050410013885,426.5002067205505,7.6578168469286005
31.36422348022461,1020.09912109375,32.43367004394531,0,0,0,0,3.30401137655305,324.4887844106878,60.838946975215606,32.53704833984375,0.002590361051261425,4.289725303649902,0.01769855059683323,0.029377900063991547,0.012184842489659786,-0.0022535808384418488,5.002319812774658e-05,0.0006767790764570236,2026-04-21 20:04:08.977710,36.350938380508225,-147.34769031227626,426.5088340281918,7.657814758037887
31.328662872314453,1020.10302734375,32.47956466674805,0,0,0,0,3.588810628148718,324.91508383754496,61.16486311184111,32.50593948364258,0.040477510541677475,4.057522296905518,0.018668334931135178,0.028892317786812782,0.011941145174205303,-0.0012402869760990143,-0.0019655227661132812,-0.0005340408533811569,2026-04-21 20:04:10.703388,36.2681993906282,-147.23318360403357,426.52609159915573,7.657810242759581
31.382003784179688,1020.081787109375,32.45814895629883,0,0,0,0,3.690540319420534,324.9577008028713,61.3985102229689,32.3769645690918,0.062410660088062286,4.470565319061279,0.017940998077392578,0.028163937851786613,0.012428538873791695,-0.004038166254758835,0.0002499520778656006,0.002109285444021225,2026-04-21 20:04:12.540909,36.18533359495141,-147.1189356751667,426.5433529813845,7.6578058457577916
31.435344696044922,1020.10009765625,32.25315475463867,0,0,0,0,3.8595977466621045,324.9935217299734,61.6393085421577,32.37467575073242,0.058973364531993866,3.689358949661255,0.017940998077392578,0.0276783537119627,0.011941145174205303,-0.00027475878596305847,-0.0014449208974838257,-4.1330233216285706e-05,2026-04-21 20:04:14.270541,36.1023416329354,-147.004945588707,426.5606180192517,7.657801452837737
31.453125,1020.123046875,32.354122161865234,0,0,0,0,4.08328473443273,325.27941978825174,61.754929984427676,32.54145812988281,0.0640840083360672,4.140636444091797,0.01721366122364998,0.027435559779405594,0.013159629888832569,-0.0033966079354286194,-0.0004486367106437683,0.00021701492369174957,2026-04-21 20:04:16.014487,36.06079853863338,-146.94804694350725,426.56925186039825,7.657799375176415
31.34644317626953,1020.1142578125,32.54075622558594,0,0,0,0,4.168103304206418,325.40156064608453,61.75934911682067,32.348838806152344,0.01952824369072914,3.975276470184326,0.017940998077392578,0.028649523854255676,0.011453751474618912,0.0010553859174251556,-0.00214221328496933,-0.00016715750098228455,2026-04-21 20:04:17.874692,35.97761852012322,-146.83444186329243,426.58652208980857,7.657794871301477
31.257543563842773,1020.11376953125,32.39083480834961,0,0,0,0,4.306098738650062,325.6815266850688,62.02439460756302,32.07144546508789,-0.13031184673309326,3.8312489986419678,0.018183445557951927,0.027192767709493637,0.012428538873791695,0.0023107118904590607,-0.0017561614513397217,0.0028167646378278732,2026-04-21 20:04:19.595443,35.89431392199834,-146.7210922820505,426.60379558556724,7.657790488686515
31.310882568359375,1020.103759765625,32.3602409362793,0,0,0,0,4.3520428598758,325.87548356692963,62.35736632960114,32.03232192993164,0.07950474321842194,4.8095831871032715,0.018425889313220978,0.027921147644519806,0.014134417288005352,2.4665147066116333e-05,0.00012011826038360596,0.00040359050035476685,2026-04-21 20:04:21.321771,35.81088537420623,-146.60799726215032,426.6210721918633,7.657786109504196
31.435344696044922,1020.078857421875,32.32964324951172,0,0,0,0,4.715788426106236,326.10595805518795,62.43285358030812,32.1868896484375,-0.10400419682264328,4.425075054168701,0.018425889313220978,0.0276783537119627,0.012428538873791695,-0.0031661875545978546,0.00047738850116729736,-0.00022346340119838715,2026-04-21 20:04:23.158527,35.769124815302824,-146.55154491965897,426.6297116127653,7.657784042637405
31.417564392089844,1020.067138671875,32.45508575439453,0,0,0,0,4.914393678584106,326.2152923083269,62.603478535964214,32.33020782470703,-0.1027706190943718,3.929633140563965,0.018183445557951927,0.02840672992169857,0.011697448790073395,-0.0051397159695625305,-0.0017969980835914612,0.0012635793536901474,2026-04-21 20:04:24.893699,35.68551151825377,-146.43882998351467,426.6469925926385,7.657779548141863
31.453125,1020.075439453125,32.262332916259766,0,0,0,0,4.858637136841999,326.41288285082624,62.917189124542894,32.325801849365234,-0.16729415953159332,3.462491989135742,0.020123012363910675,0.02986348792910576,0.013890719972550869,-0.00046772509813308716,-0.0019741952419281006,0.0002994537353515625,2026-04-21 20:04:26.623627,35.601775834608155,-146.32636726434555,426.6642762933452,7.657775178110963
31.34644317626953,1020.0693359375,32.3602409362793,0,0,0,0,5.026019033302801,326.51867223578597,62.87064821553843,32.43791580200195,-0.295687198638916,3.169499158859253,0.018668334931135178,0.02913510985672474,0.012184842489659786,-0.0009041763842105865,0.0007684081792831421,-1.5344470739364624e-05,2026-04-21 20:04:28.467747,35.517918384897996,-146.21415582442836,426.6815625589161,7.657770811386391
31.417564392089844,1020.0693359375,32.3510627746582,0,0,0,0,5.170580413972944,326.507084819859,62.99982758331088,32.58980178833008,-0.24776706099510193,2.781602144241333,0.018183445557951927,0.028163937851786613,0.010722661390900612,-0.00116068497300148,-0.00011833757162094116,-0.0015600807964801788,2026-04-21 20:04:30.195616,35.433939786983245,-146.1021947261101,426.698851233361,7.657766448217767
31.542024612426758,1020.084228515625,32.33576202392578,0,0,0,0,4.813142954327836,326.68223477584024,63.49386199616708,32.62815856933594,0.08122140914201736,3.2845568656921387,0.01769855059683323,0.029377900063991547,0.009991570375859737,-0.00017831847071647644,0.0005539506673812866,0.0009200200438499451,2026-04-21 20:04:31.928180,35.39190524980176,-146.0463077620667,426.70749642514875,7.657764392266828
31.399784088134766,1020.07568359375,32.204200744628906,0,0,0,0,4.463970023578445,326.8504042784897,64.07991954771084,32.692134857177734,0.2462291419506073,3.2360153198242188,0.020123012363910675,0.02840672992169857,0.011941145174205303,-0.0007319822907447815,-0.0011504143476486206,-0.000577438622713089,2026-04-21 20:04:33.774213,35.30774608224583,-145.93472041834397,426.7247884203207,7.657759908767316
31.453125,1020.052734375,32.39695358276367,0,0,0,0,4.627067683882356,326.9897333073688,63.95303512349952,32.890411376953125,-0.11314018070697784,3.24280047416687,0.018425889313220978,0.028892317786812782,0.011941145174205303,-0.0015459507703781128,-0.0014046579599380493,0.0008873008191585541,2026-04-21 20:04:35.511658,35.22346729950245,-145.82338107273924,426.74208243420617,7.657755552895685
31.417564392089844,1020.080078125,32.500980377197266,0,0,0,0,4.656898535082387,327.3016168203445,64.11366751239989,32.822837829589844,-0.3003075122833252,3.440735340118408,0.018668334931135178,0.02840672992169857,0.011453751474618912,-0.0014895237982273102,0.00012423843145370483,0.003285536542534828,2026-04-21 20:04:37.247908,35.139069510148985,-145.71228878822149,426.75937831068586,7.657751199726706
31.36422348022461,1020.07568359375,32.2653923034668,0,0,0,0,4.800641146825774,327.4568260390439,64.18586944211609,32.62390899658203,-0.29154810309410095,3.441091537475586,0.019153228029608727,0.02840672992169857,0.011453751474618912,-0.002558089792728424,-0.002211436629295349,0.0010669082403182983,2026-04-21 20:04:39.084625,35.096826177453586,-145.65683500112473,426.76802689860415,7.657749151019257
31.435344696044922,1020.07958984375,32.436729431152344,0,0,0,0,5.117955940852111,327.50791585403556,64.19443449933529,32.633304595947266,-0.27735331654548645,3.2598674297332764,0.019638117402791977,0.030106279999017715,0.011453751474618912,0.0008683912456035614,0.0008579641580581665,-0.0013504140079021454,2026-04-21 20:04:40.819644,35.01225101350393,-145.54611155191822,426.78532527619245,7.657744674916029
31.453125,1020.068115234375,32.4520263671875,0,0,0,0,5.064795297881433,327.6803132437813,64.27513318437899,32.641658782958984,-0.2870558202266693,3.2391934394836426,0.018668334931135178,0.02913510985672474,0.01023526769131422,0.0009103044867515564,-0.0003246888518333435,-0.0004508309066295624,2026-04-21 20:04:42.548307,34.92755835287837,-145.43563282250972,426.8026251259489,7.657740328125221
31.453125,1020.065185546875,32.27151107788086,0,0,0,0,5.319551108639153,327.7481916637529,64.46428161306414,32.611053466796875,-0.34227341413497925,3.44161319732666,0.018910780549049377,0.028892317786812782,0.012184842489659786,0.0008991621434688568,-0.0006281957030296326,-0.0004803258925676346,2026-04-21 20:04:44.381827,34.842748794973744,-145.32539787700406,426.8199262916678,7.657735983486503
31.453125,1020.090576171875,32.24091339111328,0,0,0,0,5.569088227984161,327.76656145752565,64.5843699990513,32.402225494384766,-0.6057995557785034,3.695098876953125,0.019153228029608727,0.02913510985672474,0.01364702358841896,0.0014600791037082672,0.0008953064680099487,-0.00021785125136375427,2026-04-21 20:04:46.117877,34.800300366139595,-145.2703715308565,426.8285773191874,7.657733941259603
31.488685607910156,1020.1064453125,32.592769622802734,0,0,0,0,5.549212804386247,327.8177708008278,64.58046996103523,32.41919708251953,-0.2824879586696625,3.342770576477051,0.01745610684156418,0.026707183569669724,0.012184842489659786,0.0002114512026309967,0.0015116631984710693,-0.00019330903887748718,2026-04-21 20:04:47.847972,34.71531658048706,-145.1605005073082,426.84588016589714,7.657729470797254
31.506465911865234,1020.0625,32.510162353515625,0,0,0,0,5.529550397313073,327.9204012232964,64.53244690098087,32.49938201904297,-0.28806421160697937,3.6532533168792725,0.018668334931135178,0.029620693996548653,0.010478964075446129,-5.3923577070236206e-05,-0.0005701705813407898,-0.0004414040595293045,2026-04-21 20:04:49.683695,34.63021738467321,-145.05087092980804,426.86318393793863,7.657725131423284
31.506465911865234,1020.0634765625,32.46426773071289,0,0,0,0,5.8149635121603955,328.08249185758456,64.6495573244899,32.6378288269043,-0.4276238977909088,3.4750752449035645,0.019395673647522926,0.02986348792910576,0.009504176676273346,0.0017209574580192566,0.0012649670243263245,0.0007240436971187592,2026-04-21 20:04:51.410558,34.54500336901956,-144.94148186406997,426.88048847903065,7.657720793982275
31.559804916381836,1020.082275390625,32.46120834350586,0,0,0,0,6.087276324179634,327.8710189555972,64.61434086912932,32.779502868652344,-0.6420084834098816,3.3142919540405273,0.018183445557951927,0.029620693996548653,0.012184842489659786,-0.0009661093354225159,-0.0017110854387283325,0.0017882809042930603,2026-04-21 20:04:53.137861,34.502353487525426,-144.88687723129928,426.88914098913483,7.65771875643771
31.542024612426758,1020.0771484375,32.403076171875,0,0,0,0,6.358691393209839,327.8735939369143,64.22667299221774,32.636783599853516,-0.7219424247741699,3.9559128284454346,0.018668334931135178,0.030106279999017715,0.012915932573378086,-0.0005489848554134369,-0.00020661205053329468,-0.0010112803429365158,2026-04-21 20:04:54.950519,34.41696834334481,-144.7778471826311,426.9064463907507,7.657714290645257
31.453125,1020.08544921875,32.415313720703125,0,0,0,0,6.675760300426055,327.9634450754458,64.19475551822627,32.30091857910156,-0.7214481830596924,3.614447593688965,0.01721366122364998,0.028649523854255676,0.011453751474618912,7.230043411254883e-05,0.0009686797857284546,-0.0001232437789440155,2026-04-21 20:04:56.676600,34.33146984389871,-144.6690553124771,426.92375217066547,7.657709957314175
31.488685607910156,1020.075927734375,32.534637451171875,0,0,0,0,6.518444395254559,328.16036284431186,64.313259300326,32.33620834350586,-0.6900140047073364,3.0635669231414795,0.01697121374309063,0.028649523854255676,0.012915932573378086,0.0004061274230480194,-0.00202883780002594,0.0008499957621097565,2026-04-21 20:04:58.403835,34.245858570547966,-144.56050068862166,426.9410581725497,7.657705625157404
31.506465911865234,1020.072509765625,32.228675842285156,0,0,0,0,6.3289087802208215,328.3726861048509,64.50354154041338,32.11391830444336,-0.6120094656944275,3.540945053100586,0.019880564883351326,0.02913510985672474,0.012428538873791695,-0.0016633719205856323,0.0001064985990524292,-0.0009382925927639008,2026-04-21 20:05:00.242137,34.16013510211395,-144.45218237951624,426.9583642400821,7.657701294252651
31.470905303955078,1020.060302734375,32.164424896240234,0,0,0,0,6.288529555621352,328.49441373623887,64.32249371608386,32.07583236694336,-0.7318041324615479,3.299455404281616,0.01672876812517643,0.028649523854255676,0.015596598386764526,-1.3049691915512085e-05,0.0001594051718711853,0.0006048567593097687,2026-04-21 20:05:01.993002,34.11723147492923,-144.39811155207698,426.96701724960985,7.657699261612703
31.470905303955078,1020.090087890625,32.44896697998047,0,0,0,0,6.22592873744407,328.6544758043435,64.24304495565826,32.201416015625,-0.5099341869354248,3.4013302326202393,0.019638117402791977,0.026707183569669724,0.01364702358841896,0.0021444112062454224,-0.0004471912980079651,-0.0009418409317731857,2026-04-21 20:05:03.719734,34.03134079362712,-144.2901459699924,426.9843231224877,7.657694799877713
31.524246215820312,1020.080078125,32.26845169067383,0,0,0,0,6.017679257858143,328.4346564111904,64.48831021856425,32.28326416015625,-0.5653053522109985,3.184818744659424,0.01721366122364998,0.029377900063991547,0.013890719972550869,0.00024578720331192017,-0.0006742626428604126,-0.0003491528332233429,2026-04-21 20:05:05.556738,33.94533935324242,-144.18241437693797,427.001628670173,7.657690471539029
31.488685607910156,1020.0751953125,32.66313934326172,0,0,0,0,5.969837197816789,328.81816811799206,64.95432036525588,32.12997055053711,-0.7819042801856995,2.785045862197876,0.01672876812517643,0.02913510985672474,0.012184842489659786,0.00023076683282852173,-0.0006899535655975342,-0.0014731232076883316,2026-04-21 20:05:07.292205,33.85922772378083,-144.0749158439715,427.01893373634266,7.657686144073193
31.595365524291992,1020.06494140625,32.24703598022461,0,0,0,0,6.199238065714953,328.869148649957,65.12674849085285,32.42333221435547,-0.6897646188735962,3.3388142585754395,0.018910780549049377,0.030349070206284523,0.01437811367213726,-5.009397864341736e-05,0.0007971227169036865,3.619864583015442e-05,2026-04-21 20:05:09.028197,33.81613076559116,-144.0212536849521,427.02758604000246,7.657684113111014
31.506465911865234,1020.0830078125,32.38471603393555,0,0,0,0,6.187962277168908,329.0952859680924,65.1467131337968,32.83417510986328,-0.8884561657905579,2.953514575958252,0.01697121374309063,0.028892317786812782,0.012915932573378086,-0.0009180977940559387,0.00042960047721862793,-0.0008626971393823624,2026-04-21 20:05:10.874830,33.72985491581348,-143.91410300215514,427.0448900907704,7.65767965382694
31.559804916381836,1020.10498046875,31.962491989135742,0,0,0,0,6.047217691584333,329.0319666993918,65.423363115939,32.624752044677734,-0.9154324531555176,2.5627353191375732,0.017940998077392578,0.02913510985672474,0.012915932573378086,0.0011746138334274292,0.0004957318305969238,0.0003155618906021118,2026-04-21 20:05:12.609160,33.643470291067,-143.80718306074618,427.0621932692002,7.657675327546461
31.488685607910156,1020.073486328125,32.39695358276367,0,0,0,0,5.969397931275792,329.0672241358874,65.63481894245342,32.40915298461914,-0.9798447489738464,3.0160632133483887,0.018668334931135178,0.029377900063991547,0.013403326272964478,-0.0018456541001796722,0.00024772435426712036,0.0014661289751529694,2026-04-21 20:05:14.346585,33.55697745265652,-143.70049293478348,427.07949541898506,7.657671001706859
31.63092613220215,1020.087646484375,32.14912796020508,0,0,0,0,6.136900209820715,329.4507221823107,65.45615485414423,32.629356384277344,-1.159652590751648,3.0528364181518555,0.018183445557951927,0.02986348792910576,0.01364702358841896,-0.002149708569049835,0.0007629469037055969,0.0008681751787662506,2026-04-21 20:05:16.192036,33.513690628061994,-143.647233763492,427.0881460592864,7.657668971865341
31.488685607910156,1020.071533203125,32.222557067871094,0,0,0,0,6.057999145189197,329.5226918855951,65.71659679738599,32.71730422973633,-1.2524510622024536,2.7278096675872803,0.018425889313220978,0.029377900063991547,0.011453751474618912,-0.001842152327299118,0.00015179067850112915,-0.0006110798567533493,2026-04-21 20:05:17.919412,33.42703651621773,-143.54088662659464,427.1054463730334,7.657664513068788
31.542024612426758,1020.0810546875,32.37553787231445,0,0,0,0,6.232349115263882,329.4081120471736,65.44494651371623,32.66809844970703,-1.1635173559188843,2.7206876277923584,0.018425889313220978,0.029620693996548653,0.012428538873791695,5.5164098739624023e-05,8.699297904968262e-05,0.0002556014806032181,2026-04-21 20:05:19.651738,33.34027558321523,-143.43476699440663,427.12274526739657,7.657660187299516
31.435344696044922,1020.09814453125,31.93801498413086,0,0,0,0,6.1359307498453965,329.2444675448492,65.46357926977203,32.67848205566406,-1.0839227437973022,2.6556036472320557,0.017940998077392578,0.026707183569669724,0.01096635777503252,-0.0038475394248962402,-0.001961156725883484,0.0011452138423919678,2026-04-21 20:05:21.497864,33.253408381778954,-143.32887394434988,427.1400425861202,7.657655861574594
31.559804916381836,1020.086669921875,32.381656646728516,0,0,0,0,6.093355192540946,329.34922898633886,65.76375242341575,32.66883087158203,-1.0349812507629395,2.2679507732391357,0.018910780549049377,0.029377900063991547,0.012915932573378086,8.574500679969788e-05,-0.001326046884059906,0.001704556867480278,2026-04-21 20:05:23.228058,33.16643546220303,-143.2232065548788,427.15733817295404,7.65765153547951
31.542024612426758,1020.07568359375,32.12464904785156,0,0,0,0,6.168648636630227,329.4966996007086,65.61174656343712,32.686405181884766,-1.039763331413269,3.031055450439453,0.018183445557951927,0.027435559779405594,0.011697448790073395,0.0013249702751636505,0.0007988736033439636,0.0007960554212331772,2026-04-21 20:05:24.971536,33.1229095294191,-143.17045719517048,427.1659852680905,7.657649505008212
31.542024612426758,1020.080322265625,32.30210876464844,0,0,0,0,6.016372130405732,329.4263554824467,65.43920232462426,32.81767654418945,-1.0668483972549438,3.305539608001709,0.019880564883351326,0.02913510985672474,0.012428538873791695,0.00043991580605506897,0.0019663795828819275,-0.00160880945622921,2026-04-21 20:05:26.808523,33.03577905914817,-143.06512657098665,427.18327796416816,7.657645045342385
31.470905303955078,1020.10546875,32.19502258300781,0,0,0,0,6.222289100390099,329.3002087186657,65.6500639246809,32.734500885009766,-1.1160527467727661,3.6700990200042725,0.018910780549049377,0.028649523854255676,0.01096635777503252,-0.003123205155134201,0.00011542439460754395,-0.0027837026864290237,2026-04-21 20:05:28.543539,32.94854423590936,-142.96001930818147,427.20056853783535,7.657640718008515
31.542024612426758,1020.064453125,32.25315475463867,0,0,0,0,6.296642112808035,329.24654050726235,66.33619057775452,32.695640563964844,-1.1547048091888428,3.557105779647827,0.019395673647522926,0.029620693996548653,0.013403326272964478,-0.0004421323537826538,0.0019390955567359924,-0.0003827884793281555,2026-04-21 20:05:30.271864,32.86120560157073,-142.85513448900898,427.21785683292273,7.6576363897895465
31.648706436157227,1020.0986328125,32.40919494628906,0,0,0,0,6.259116199734339,329.1569147649734,66.58614818062031,32.729576110839844,-1.3064428567886353,3.372706413269043,0.018668334931135178,0.028892317786812782,0.011210055090487003,0.00038336217403411865,-0.0010519623756408691,0.0004936624318361282,2026-04-21 20:05:32.114926,32.81749752392187,-142.80277520930153,427.2265000772086,7.657634357567369
31.63092613220215,1020.0654296875,32.38471603393555,0,0,0,0,6.696704221742253,329.3961694614098,66.53485345995351,32.85341262817383,-1.2416393756866455,2.1496047973632812,0.018425889313220978,0.030349070206284523,0.012672236189246178,-0.0008476711809635162,-0.0011307969689369202,0.0001356862485408783,2026-04-21 20:05:33.851806,32.73000418372264,-142.69822233730818,427.2437846616813,7.657629895946312
31.595365524291992,1020.09375,32.18890380859375,0,0,0,0,6.57446091107195,329.4789718447179,66.6420464487877,33.11990737915039,-1.3700761795043945,2.329392671585083,0.019395673647522926,0.028163937851786613,0.011941145174205303,0.0017963647842407227,7.008016109466553e-05,-0.00011892057955265045,2026-04-21 20:05:35.587610,32.642408376680315,-142.5938896196417,427.26106657729997,7.657625565340275
31.63092613220215,1020.07958984375,32.133827209472656,0,0,0,0,6.245425939316695,329.70765682341363,66.7484334752998,33.32691192626953,-1.357969880104065,2.4183003902435303,0.019880564883351326,0.028892317786812782,0.013159629888832569,0.0020584836602211,-0.0005402415990829468,-0.0006525926291942596,2026-04-21 20:05:37.425104,32.55471063635835,-142.48977614266832,427.27834566799993,7.657621233433355
31.595365524291992,1020.114013671875,32.33576202392578,0,0,0,0,6.197308537274424,329.6934978412642,66.6793734326018,33.08872604370117,-1.2149310111999512,2.8781721591949463,0.018425889313220978,0.0276783537119627,0.01096635777503252,0.0008164793252944946,4.614144563674927e-05,-0.0005998052656650543,2026-04-21 20:05:39.152134,32.51082370731395,-142.4378013342658,427.2869841052452,7.657619198493483
31.63092613220215,1020.0986328125,32.38471603393555,0,0,0,0,6.1905483575434035,329.5035673559191,66.66718154493334,32.6153678894043,-1.5468745231628418,2.3932228088378906,0.018425889313220978,0.02913510985672474,0.012184842489659786,-0.0013093575835227966,-0.00021234899759292603,-0.0006102006882429123,2026-04-21 20:05:40.886238,32.42297406236657,-142.3340150079587,427.3042586660449,7.657614733266812
31.577585220336914,1020.09375,32.045101165771484,0,0,0,0,6.223791315120679,329.5846553617455,66.70110709454079,32.50139236450195,-1.5682435035705566,2.1578009128570557,0.018910780549049377,0.029377900063991547,0.012915932573378086,0.0034417174756526947,5.1818788051605225e-05,-0.0024119503796100616,2026-04-21 20:05:42.715620,32.33502380778875,-142.2304456436872,427.3215300119509,7.657610397864583
31.577585220336914,1020.077880859375,32.23785400390625,0,0,0,0,6.1798680761156195,329.67002931127604,66.57197553809253,32.29948043823242,-1.384864091873169,2.5866377353668213,0.018668334931135178,0.029620693996548653,0.009747873991727829,-0.0010802000761032104,-0.0023483335971832275,0.0003246162086725235,2026-04-21 20:05:44.450614,32.246973468961826,-142.1270923322197,427.33879798703856,7.657606060850071
31.648706436157227,1020.093505859375,32.36635971069336,0,0,0,0,6.016024217644884,329.5875786827102,67.39788884271964,32.45137023925781,-1.2203481197357178,2.521716594696045,0.018910780549049377,0.028163937851786613,0.012184842489659786,0.002121463418006897,0.00012370944023132324,-0.0008932333439588547,2026-04-21 20:05:46.185564,32.202910931504604,-142.07549641251194,427.3474306618118,7.657604021547806
31.648706436157227,1020.07177734375,32.21643829345703,0,0,0,0,6.218597810030531,329.53589122616614,67.27028724864546,32.52935791015625,-1.1086992025375366,2.179100275039673,0.01769855059683323,0.027921147644519806,0.009747873991727829,-0.001827627420425415,0.00011618435382843018,-0.0008642077445983887,2026-04-21 20:05:48.016298,32.11471144633447,-141.9724654783109,427.3646932884212,7.657599551892503
31.577585220336914,1020.08447265625,32.228675842285156,0,0,0,0,6.348513557572874,329.6254008552392,67.15464531580798,32.844818115234375,-1.236413836479187,2.065783977508545,0.018910780549049377,0.0276783537119627,0.012915932573378086,0.0021066516637802124,0.0009305700659751892,-0.0007974635809659958,2026-04-21 20:05:49.743963,32.026413180265536,-141.86964832960945,427.38195215460837,7.657595210082169
31.595365524291992,1020.082763671875,32.167484283447266,0,0,0,0,6.3651279927289295,329.60397796690745,67.35119766955343,32.659141540527344,-1.1529055833816528,2.088963270187378,0.019395673647522926,0.030349070206284523,0.01096635777503252,0.0005277842283248901,-0.0018126815557479858,-0.0008292142301797867,2026-04-21 20:05:51.479253,31.938016650623783,-141.76704406184783,427.3992071046114,7.657590866010037
31.61314582824707,1020.0693359375,32.00532531738281,0,0,0,0,6.336189761876055,329.59920707977216,67.28324411750098,32.64010238647461,-1.1506448984146118,2.101104736328125,0.019638117402791977,0.028649523854255676,0.014621810987591743,-0.0018801875412464142,-6.626546382904053e-05,-0.0008246526122093201,2026-04-21 20:05:53.313830,31.849522372450696,-141.6646517718433,427.41645798272657,7.657586520062572
31.70204734802246,1020.087646484375,32.4000129699707,0,0,0,0,6.169379893758242,329.4414194646611,67.02166153266784,32.50936508178711,-1.257352590560913,2.0773394107818604,0.019638117402791977,0.02913510985672474,0.01023526769131422,-0.00026486441493034363,-0.00037744641304016113,0.0012472141534090042,2026-04-21 20:05:55.050525,31.805238737996355,-141.61353483663933,427.42508184618237,7.657584473802148
31.71982765197754,1020.087890625,32.1705436706543,0,0,0,0,6.182186925338839,329.2053032401484,66.9147076004546,32.63212203979492,-1.537980556488037,2.0864250659942627,0.017940998077392578,0.030349070206284523,0.011453751474618912,0.002239517867565155,0.0001583099365234375,0.0015012528747320175,2026-04-21 20:05:56.783984,31.716598797780478,-141.5114588228952,427.4423263246299,7.657579995924035
31.63092613220215,1020.084228515625,32.38777542114258,0,0,0,0,6.059078741964883,329.3026846622398,66.80825910223996,32.58458709716797,-1.3212379217147827,1.9655275344848633,0.019638117402791977,0.028163937851786613,0.010722661390900612,-0.0007523186504840851,-0.0028453096747398376,0.0017375517636537552,2026-04-21 20:05:58.616801,31.627862386742365,-141.40959253513302,427.4595663421569,7.6575756438121925
31.595365524291992,1020.0703125,32.317405700683594,0,0,0,0,5.994258966080992,329.4983217706365,66.91455733629286,32.48396682739258,-1.3474184274673462,2.7259137630462646,0.020123012363910675,0.028892317786812782,0.012184842489659786,0.003161359578371048,0.0014467313885688782,-0.0003453753888607025,2026-04-21 20:06:00.349536,31.53903001203182,-141.30793507516717,427.47680174325524,7.657571288736273
31.648706436157227,1020.102294921875,32.28068923950195,0,0,0,0,6.281108555088133,329.4513471446197,67.05708972389269,32.747962951660156,-1.3582956790924072,2.865105152130127,0.01769855059683323,0.027435559779405594,0.01364702358841896,-0.001405607908964157,-0.0009749606251716614,-0.0018741115927696228,2026-04-21 20:06:02.096073,31.49457799617198,-141.25718437532532,427.4854176640574,7.65756923540901
31.666486740112305,1020.126708984375,32.23479461669922,0,0,0,0,6.34488032382125,329.47337108959846,67.16363384475571,32.77275085449219,-1.5555245876312256,2.7740583419799805,0.019153228029608727,0.02913510985672474,0.011941145174205303,-0.0011566653847694397,-4.001706838607788e-05,0.0017686393111944199,2026-04-21 20:06:03.923387,31.405602621975955,-141.15583847616327,427.50264584905835,7.657564750533379
31.70204734802246,1020.113037109375,32.25009536743164,0,0,0,0,6.280038349822557,329.4038158581856,67.4063924282363,32.52374267578125,-1.662056565284729,2.7016348838806152,0.019153228029608727,0.02913510985672474,0.011210055090487003,-0.0008945204317569733,0.000578172504901886,0.0011468175798654556,2026-04-21 20:06:05.659877,31.31653254223008,-141.05469916577093,427.5198690291172,7.6575603883408565
31.737607955932617,1020.128662109375,32.317405700683594,0,0,0,0,6.344106804897746,329.2407075257111,67.4324291093524,32.84024429321289,-1.696287989616394,2.521698236465454,0.018183445557951927,0.027921147644519806,0.011453751474618912,-0.002382047474384308,-0.0006260201334953308,-0.0018814727663993835,2026-04-21 20:06:07.395293,31.22736825631475,-140.95376555117784,427.53708704895143,7.657556022534821
31.61314582824707,1020.068603515625,32.442848205566406,0,0,0,0,6.300307789958216,329.304057530263,67.81561638216846,32.738224029541016,-1.6836129426956177,2.628215789794922,0.019153228029608727,0.02913510985672474,0.011453751474618912,0.0011648759245872498,0.0005268007516860962,-2.0859763026237488e-05,2026-04-21 20:06:09.255105,31.138110261408464,-140.85303674092833,427.55429975333846,7.657551653489111
31.684267044067383,1020.1171875,32.130767822265625,0,0,0,0,6.495888549294238,329.3734317616628,67.99115224383777,32.60945510864258,-1.5002964735031128,2.3979930877685547,0.018183445557951927,0.030106279999017715,0.013159629888832569,-0.0007724128663539886,0.0005031228065490723,0.0009215287864208221,2026-04-21 20:06:10.990994,31.093446277855122,-140.80274885927417,427.5629040637532,7.657549589420431
31.684267044067383,1020.1083984375,32.3602409362793,0,0,0,0,6.50497739664541,329.4214718971901,67.89589842567278,32.61329650878906,-1.6161518096923828,2.1593828201293945,0.018910780549049377,0.02840672992169857,0.009747873991727829,0.0007948614656925201,0.0007704421877861023,-0.0006109364330768585,2026-04-21 20:06:12.721302,31.004048646894983,-140.70232558743962,427.5801085040848,7.657545093708018
31.666486740112305,1020.098876953125,32.42449188232422,0,0,0,0,6.2378828491520615,329.6170850999247,68.15430497254188,32.55085372924805,-1.6803544759750366,2.3815205097198486,0.01721366122364998,0.031563032418489456,0.010722661390900612,-0.0019196458160877228,-0.0007474049925804138,-0.0002856440842151642,2026-04-21 20:06:14.580339,30.91455854034921,-140.60210489809896,427.5973072412298,7.657540716015075
31.684267044067383,1020.113037109375,32.23173522949219,0,0,0,0,6.348031175462742,329.54748547228223,68.32073619204758,32.690956115722656,-1.7034558057785034,2.4976203441619873,0.018668334931135178,0.02840672992169857,0.009747873991727829,0.0010553337633609772,0.00044827908277511597,0.0014850795269012451,2026-04-21 20:06:16.318607,30.82497644779136,-140.50208590527197,427.6145001202294,7.657536334377884
31.684267044067383,1020.103759765625,32.20726013183594,0,0,0,0,6.271957809147609,329.62109783606206,68.36809672375244,32.79053497314453,-1.8828425407409668,2.0751004219055176,0.019395673647522926,0.028649523854255676,0.011453751474618912,0.00017021223902702332,0.000418640673160553,-0.0003598947077989578,2026-04-21 20:06:18.059519,30.780151059159945,-140.4521517686164,427.62309431452104,7.657534260640136
31.737607955932617,1020.09326171875,32.3602409362793,0,0,0,0,6.1999650539747355,329.77915182855077,68.14812365134301,32.60185241699219,-1.766890287399292,1.688629150390625,0.019153228029608727,0.029620693996548653,0.011210055090487003,-0.0013078711926937103,-0.00231131911277771,0.0017453506588935852,2026-04-21 20:06:19.897773,30.69043190082679,-140.35243366283814,427.6402781159168,7.657529754715671
31.70204734802246,1020.109130859375,32.18278121948242,0,0,0,0,6.147690201162043,329.8770796657758,68.07754730664927,32.553955078125,-1.5966682434082031,1.592588186264038,0.019395673647522926,0.02913510985672474,0.011453751474618912,-0.002262834459543228,0.0004295036196708679,0.0014245957136154175,2026-04-21 20:06:21.639920,30.60062197102065,-140.25291504563432,427.65745567210615,7.657525363256411
31.684267044067383,1020.108642578125,32.344940185546875,0,0,0,0,6.247550128148569,330.0296421861718,68.12490783835413,32.653263092041016,-1.9078105688095093,1.3453730344772339,0.018668334931135178,0.02840672992169857,0.011697448790073395,0.0004446059465408325,-0.0017597079277038574,0.0008201133459806442,2026-04-21 20:06:23.388152,30.51072175183097,-140.15359503667324,427.67462682840505,7.657520967621428
31.71982765197754,1020.09765625,32.167484283447266,0,0,0,0,6.160454970947151,329.8042254529939,68.16791070936854,32.925045013427734,-1.8180269002914429,1.5511388778686523,0.019638117402791977,0.02913510985672474,0.012184842489659786,-0.0020267143845558167,0.0003933906555175781,-0.0003892555832862854,2026-04-21 20:06:25.274741,30.420731723233505,-140.0544727572744,427.69179143022757,7.657516567550759
31.826507568359375,1020.105712890625,32.106292724609375,0,0,0,0,6.109151285657069,329.6055113443761,67.96599665712462,32.95372009277344,-1.8364311456680298,1.498558759689331,0.019880564883351326,0.028163937851786613,0.012184842489659786,0.0014096833765506744,0.00033757835626602173,-0.00012803822755813599,2026-04-21 20:06:27.027443,30.375703179821514,-140.00498549202305,427.7003712249152,7.6575144796186025
31.755388259887695,1020.108642578125,31.886001586914062,0,0,0,0,5.867082978169471,329.4239956520884,68.02952424659492,32.75975036621094,-1.8201510906219482,1.823573112487793,0.017940998077392578,0.029377900063991547,0.011697448790073395,0.0004404336214065552,-0.0002159327268600464,-0.001926405355334282,2026-04-21 20:06:28.769271,30.285579332461044,-139.90615816306752,427.71752570534136,7.657509958925374
31.773168563842773,1020.110595703125,32.143009185791016,0,0,0,0,5.970781898356366,329.31260551200927,68.35566577946302,32.83110809326172,-1.7084569931030273,1.9979146718978882,0.018910780549049377,0.028649523854255676,0.011697448790073395,0.0006285905838012695,-0.0008170977234840393,-0.0007124003022909164,2026-04-21 20:06:30.632816,30.1953668664423,-139.80752637424936,427.73467324518333,7.657505547532354
31.79094886779785,1020.140380859375,32.18278121948242,0,0,0,0,5.897533242149857,329.2337031667173,68.47601371263865,32.83492660522461,-1.8684197664260864,1.9404804706573486,0.01769855059683323,0.028892317786812782,0.012428538873791695,0.000847306102514267,0.0009686946868896484,0.0014316011220216751,2026-04-21 20:06:32.383744,30.105066254419807,-139.7090892527498,427.7518136901699,7.65750113124496
31.755388259887695,1020.10888671875,32.295989990234375,0,0,0,0,5.978606733824262,329.3355549476205,68.20051803246618,33.06100082397461,-2.063464641571045,2.11384916305542,0.018183445557951927,0.02986348792910576,0.011697448790073395,0.0023574382066726685,0.0011959150433540344,-0.001005588099360466,2026-04-21 20:06:34.126794,30.059883040795064,-139.65994341995582,427.76038120390785,7.657499030697641
31.79094886779785,1020.100830078125,32.378597259521484,0,0,0,0,6.078204552301388,329.37533055425206,68.02723613322296,33.10091018676758,-2.1509432792663574,1.957605242729187,0.019153228029608727,0.028649523854255676,0.011453751474618912,-0.0018175803124904633,0.0014280006289482117,-0.0007139835506677628,2026-04-21 20:06:36.008897,29.969451091471573,-139.56179666662086,427.77751071755665,7.657494497637946
31.70204734802246,1020.122314453125,32.15830612182617,0,0,0,0,6.125806701948146,329.19554289982443,68.1167389321068,32.96123123168945,-2.065427541732788,1.744482159614563,0.019638117402791977,0.028892317786812782,0.012672236189246178,-1.5404075384140015e-05,-0.0010178685188293457,0.0020016152411699295,2026-04-21 20:06:37.744897,29.878932168752957,-139.4638424060294,427.7946327510708,7.657490068713682
31.684267044067383,1020.115234375,32.320465087890625,0,0,0,0,6.219358095462518,329.2056379194177,67.75471841552861,32.88680648803711,-1.8881945610046387,1.9363415241241455,0.018910780549049377,0.028649523854255676,0.012428538873791695,6.980076432228088e-05,0.001016959547996521,-0.0013340525329113007,2026-04-21 20:06:39.471734,29.78832673809817,-139.3660797713685,427.811747150532,7.657485634683682
31.70204734802246,1020.119140625,32.164424896240234,0,0,0,0,5.892912619176343,329.04180900198577,67.52781953130079,32.87776184082031,-1.6743415594100952,1.8249388933181763,0.018183445557951927,0.028892317786812782,0.012184842489659786,-0.000535622239112854,-0.0007425695657730103,-0.0012859702110290527,2026-04-21 20:06:41.316391,29.697635262936625,-139.2685078975645,427.82885376210015,7.657481195237674
31.737607955932617,1020.11328125,32.164424896240234,0,0,0,0,5.6690531691291755,329.01550252839746,67.5753098365999,32.793975830078125,-1.7421661615371704,1.7952969074249268,0.017940998077392578,0.02840672992169857,0.012184842489659786,0.0009010620415210724,-0.0009845197200775146,0.0005308128893375397,2026-04-21 20:06:43.052339,29.652257402932772,-139.21979322612592,427.837404099384,7.657479077200656
31.826507568359375,1020.130859375,32.3082275390625,0,0,0,0,5.602443029909095,329.2383101293125,67.47250865940204,32.794410705566406,-1.8694570064544678,1.59583580493927,0.018668334931135178,0.028163937851786613,0.012915932573378086,-0.001780875027179718,-5.811452865600586e-05,0.0014413315802812576,2026-04-21 20:06:44.786514,29.561437725516544,-139.12250587543724,427.8544987409168,7.657474525805282
31.773168563842773,1020.1123046875,32.317405700683594,0,0,0,0,5.543871169568474,329.38021755460323,67.3050802322775,32.90824890136719,-2.0835208892822266,1.3267812728881836,0.018668334931135178,0.028649523854255676,0.012672236189246178,0.0024393685162067413,0.001067236065864563,0.00027972832322120667,2026-04-21 20:06:46.625759,29.470533153338735,-139.02540713061722,427.871585210446,7.657470072323173
31.79094886779785,1020.094970703125,32.25315475463867,0,0,0,0,5.473130046561006,329.40978202842564,67.35143672617438,33.034236907958984,-2.34460711479187,0.6632631421089172,0.018425889313220978,0.029620693996548653,0.011210055090487003,-0.0006039999425411224,-0.000739753246307373,-0.0009251683950424194,2026-04-21 20:06:48.360817,29.379544142794554,-138.92849613277173,427.88866335452167,7.657465613065594
31.87984848022461,1020.126220703125,31.90435791015625,0,0,0,0,5.271132324499756,329.3129197007111,67.36430480257069,33.151729583740234,-2.198742628097534,0.5984905958175659,0.017940998077392578,0.028892317786812782,0.011941145174205303,0.0011924728751182556,0.00044021010398864746,0.0015434231609106064,2026-04-21 20:06:50.088267,29.334018115215887,-138.8801107710449,427.8971992565903,7.657463479762336
31.79094886779785,1020.129638671875,32.24703598022461,0,0,0,0,5.267063666188544,329.42860602977817,67.0700465927482,32.6900520324707,-2.060225486755371,0.8612474799156189,0.020365456119179726,0.029377900063991547,0.012672236189246178,0.00176924467086792,-0.00018856674432754517,0.00093097984790802,2026-04-21 20:06:51.931377,29.24290329852318,-138.783479787132,427.9142646250011,7.657458913094189
31.773168563842773,1020.085693359375,32.262332916259766,0,0,0,0,5.084543509206055,329.2813949625969,67.18980712965521,32.65498352050781,-1.825642704963684,1.078750729560852,0.019880564883351326,0.030349070206284523,0.011697448790073395,0.00023142248392105103,-0.0008222311735153198,-0.0008769165724515915,2026-04-21 20:06:53.658777,29.151705175786205,-138.68703441078407,427.93132128482466,7.657454438686431
31.79094886779785,1020.112548828125,32.21031951904297,0,0,0,0,5.006947864479656,329.39562987646536,67.43775665690501,32.646575927734375,-2.161353349685669,0.8740622997283936,0.017940998077392578,0.028649523854255676,0.012428538873791695,0.00018209964036941528,-0.0002020522952079773,5.648471415042877e-05,2026-04-21 20:06:55.397037,29.060424196495205,-138.59077378938687,427.9483690829984,7.657449958164711
31.70204734802246,1020.119384765625,32.18584060668945,0,0,0,0,4.623314494933434,329.4608684283227,67.73441226312617,32.50700378417969,-2.2671616077423096,0.9023456573486328,0.018425889313220978,0.028892317786812782,0.012672236189246178,0.0010316111147403717,-0.00047960877418518066,0.0006579253822565079,2026-04-21 20:06:57.248078,28.969060808189624,-138.494697072147,427.96540786660626,7.657445471248677
31.773168563842773,1020.10595703125,32.11547088623047,0,0,0,0,4.349730413954927,329.4484682198846,67.75973860456858,32.532901763916016,-1.989135980606079,1.7970049381256104,0.018425889313220978,0.028649523854255676,0.013890719972550869,-0.0011187568306922913,0.0001467093825340271,0.00010344013571739197,2026-04-21 20:06:58.991916,28.923348349981865,-138.44672741221697,427.9739238301827,7.657443316259291
31.79094886779785,1020.111083984375,32.072635650634766,0,0,0,0,4.60816300092023,329.63296528974496,67.70212595891952,32.82318878173828,-1.93822181224823,1.5060818195343018,0.018183445557951927,0.028649523854255676,0.011453751474618912,0.002720024436712265,0.0018398016691207886,-0.0010503698140382767,2026-04-21 20:07:00.736339,28.831862183046592,-138.35092495997057,427.99094880545454,7.657438728386853
31.79094886779785,1020.1083984375,32.27457046508789,0,0,0,0,4.38995852061901,329.5633417564404,67.86408340451887,32.91899871826172,-2.020805597305298,1.384168267250061,0.017940998077392578,0.02840672992169857,0.013159629888832569,-0.0009424276649951935,-0.0014453008770942688,-0.000411035493016243,2026-04-21 20:07:02.630449,28.740294717478687,-138.25530429288844,428.00796438436373,7.657434224805088
31.86206817626953,1020.139892578125,32.27151107788086,0,0,0,0,4.197923056349047,329.4490112199236,68.25641630063356,32.98648452758789,-1.9966753721237183,1.2673574686050415,0.020123012363910675,0.027435559779405594,0.009260480292141438,-0.001925300806760788,0.0015722811222076416,0.0025688502937555313,2026-04-21 20:07:04.368108,28.648646394068876,-138.15986456659036,428.02497041442075,7.6574297144813155
31.79094886779785,1020.107666015625,32.07875442504883,0,0,0,0,3.9604309756053566,329.2733250940925,68.06113436207373,33.185420989990234,-2.043065309524536,0.9303951859474182,0.01769855059683323,0.028649523854255676,0.013403326272964478,-0.0003883540630340576,-0.0007444247603416443,0.00039249099791049957,2026-04-21 20:07:06.103044,28.602792047899737,-138.11221229286903,428.0334698010074,7.657427542386541
31.808727264404297,1020.098388671875,32.3510627746582,0,0,0,0,3.935052980857351,329.2710711316664,67.78800192735409,32.951263427734375,-2.1749913692474365,0.22100678086280823,0.019880564883351326,0.03059186413884163,0.012672236189246178,-0.0009237080812454224,0.00046594440937042236,0.0018685124814510345,2026-04-21 20:07:07.949845,28.511023260051697,-138.01704239857148,428.05046122214026,7.657422936000074
31.915409088134766,1020.1279296875,32.02980422973633,0,0,0,0,4.07048282549401,329.3676773272871,67.57709934616244,32.718971252441406,-2.2126169204711914,-0.012995881959795952,0.01745610684156418,0.02913510985672474,0.01584029383957386,0.0008541867136955261,-0.0013906210660934448,-0.00025159865617752075,2026-04-21 20:07:09.684382,28.419174708034635,-137.922051342205,428.0674427137601,7.6574184079175405
31.915409088134766,1020.119873046875,32.11241149902344,0,0,0,0,3.972077301913875,329.5153255265752,67.5325323618281,32.841064453125,-2.597783088684082,-0.2750060260295868,0.019153228029608727,0.029377900063991547,0.012915932573378086,0.001443285495042801,-0.0004726797342300415,9.513832628726959e-05,2026-04-21 20:07:11.428330,28.32724682601974,-137.8272382858851,428.0844141238322,7.657413872607987
31.86206817626953,1020.11181640625,32.081817626953125,0,0,0,0,4.023220477758461,329.3015098697026,67.24806181308624,32.78384017944336,-2.5217154026031494,-0.10857891291379929,0.018425889313220978,0.02986348792910576,0.011210055090487003,0.00025665760040283203,-0.002503342926502228,-0.0005455110222101212,2026-04-21 20:07:13.265201,28.235240046308142,-137.73260239358692,428.10137530046177,7.65740933005336
31.79094886779785,1020.09326171875,32.15524673461914,0,0,0,0,3.992880777465264,329.2615874140039,67.02069847599486,32.62020492553711,-2.51399302482605,0.24858373403549194,0.018425889313220978,0.029377900063991547,0.01096635777503252,-0.0027742572128772736,-0.0004058852791786194,0.00036212801933288574,2026-04-21 20:07:15.001087,28.189207204402297,-137.68535062320467,428.10985200380765,7.657407133111162
31.808727264404297,1020.095458984375,31.93801498413086,0,0,0,0,3.942167903538389,329.3706450444815,67.14771267380041,32.739498138427734,-2.380999803543091,0.2823556661605835,0.018668334931135178,0.027921147644519806,0.009260480292141438,-0.0006645917892456055,0.001968778669834137,-0.00022789277136325836,2026-04-21 20:07:16.736869,28.097082884647847,-137.59097891351738,428.126797545774,7.657402502040483
31.86206817626953,1020.10546875,32.05733871459961,0,0,0,0,3.7785917031057537,329.29265794453823,67.54887700451195,33.02080535888672,-2.169602870941162,0.28781425952911377,0.01769855059683323,0.027921147644519806,0.011941145174205303,-0.00041023269295692444,0.0013481304049491882,9.7690150141716e-05,2026-04-21 20:07:18.567647,28.0048807398401,-137.4967822860301,428.1437324751814,7.657397940318109
31.826507568359375,1020.083984375,32.1613655090332,0,0,0,0,3.4778621024880887,329.30201188860656,67.4659106966638,32.974674224853516,-2.0361328125,0.3206102252006531,0.019395673647522926,0.028892317786812782,0.011697448790073395,0.0011231191456317902,-0.00044867396354675293,-0.00023937784135341644,2026-04-21 20:07:20.319056,27.912601195817224,-137.4027599113112,428.16065664062626,7.6573933708564415
31.933189392089844,1020.11376953125,31.99920654296875,0,0,0,0,3.2659832311319463,329.1045101385665,67.81291162725712,32.896026611328125,-2.2754921913146973,0.08919186145067215,0.01769855059683323,0.02986348792910576,0.013159629888832569,0.0004889331758022308,-0.001040138304233551,2.1772459149360657e-05,2026-04-21 20:07:22.061442,27.86643253167675,-137.35581381006185,428.16911463958695,7.657391153500891
31.808727264404297,1020.111083984375,32.1185302734375,0,0,0,0,3.054993991915198,329.2771363396494,67.74770381125101,33.00358581542969,-2.5848419666290283,0.1819424033164978,0.018668334931135178,0.02840672992169857,0.011697448790073395,-0.0015655569732189178,-0.0013274326920509338,0.0009460598230361938,2026-04-21 20:07:23.901029,27.774037683292043,-137.26205126345565,428.18602237553296,7.657386501599627
31.826507568359375,1020.0947265625,31.78197479248047,0,0,0,0,2.987187929260131,329.39896300878036,67.77604909630656,32.68513870239258,-2.6165378093719482,-0.1951695680618286,0.018183445557951927,0.027435559779405594,0.009747873991727829,8.109956979751587e-06,-0.0007639676332473755,-0.0014143027365207672,2026-04-21 20:07:25.644275,27.68156649233024,-137.16846090432807,428.20291896966864,7.657381912083558
31.933189392089844,1020.084716796875,32.127708435058594,0,0,0,0,2.868519368846683,329.40401734876616,68.03357454877273,32.92630386352539,-2.6572189331054688,-0.4845455288887024,0.01697121374309063,0.02840672992169857,0.012184842489659786,0.0005542561411857605,0.0013137608766555786,-0.0007506869733333588,2026-04-21 20:07:27.380819,27.589019378291038,-137.07504190989377,428.21980427110884,7.657377314111828
31.86206817626953,1020.11181640625,32.109352111816406,0,0,0,0,2.4891802672976953,329.2361483744402,67.87806480174987,33.13791275024414,-2.4576244354248047,0.04563744366168976,0.018668334931135178,0.02986348792910576,0.013159629888832569,0.0017934031784534454,0.0010154098272323608,0.0004352051764726639,2026-04-21 20:07:29.209531,27.49639675888072,-136.98179345926738,428.2366781291348,7.657372708045957
