temperature,pressure,humidity,red,green,blue,clear,yaw,pitch,roll,magnetometer_x,magnetometer_y,magnetometer_z,accelerometer_x,accelerometer_y,accelerometer_z,gyroscope_x,gyroscope_y,gyroscope_z,datetime,iss_latitude,iss_longitude,iss_altitude_km,speed,photo_link,location
31.382003784179688,1022.35400390625,35.496334075927734,0,0,0,0,319.46786112539263,327.0688508036196,77.82484196928277,12.379622459411621,-2.6219661235809326,-12.085366249084473,0.018668334931135178,0.031077450141310692,0.010722661390900612,0.009405722841620445,0.063807412981987,-0.013715831562876701,2026-04-30 16:32:09.486692,-22.633457384088285,-92.30268795987799,434.3369138927683,7.650944151699878,Photo1.jpg,Unknown
31.34644317626953,1022.34814453125,35.56058883666992,0,0,0,0,326.23942678175916,330.26227159911326,75.34139884744447,25.278738021850586,-5.373504638671875,-24.482826232910156,0.019638117402791977,0.0276783537119627,0.006336118094623089,0.01157463900744915,0.06142640858888626,-0.011861843056976795,2026-04-30 16:32:11.230012,-22.729290068816603,-92.21730630347997,434.3407295272391,7.65092693020023,,
31.453125,1022.359375,35.48103713989258,0,0,0,0,332.7075988502883,332.8500339076925,73.10598038493684,30.648557662963867,-6.9598259925842285,-29.059972763061523,0.018910780549049377,0.028649523854255676,0.0075546023435890675,0.010314727202057838,0.05510224774479866,-0.009947266429662704,2026-04-30 16:32:13.158362,-22.77718522037448,-92.17456680530489,434.3426193603109,7.650915237591296,,
31.382003784179688,1022.36279296875,35.64013671875,0,0,0,0,337.2826525092069,335.1003012014557,71.92916611170033,32.69863510131836,-7.067215442657471,-31.3692684173584,0.019638117402791977,0.030106279999017715,0.007798299193382263,0.01021941751241684,0.05230644345283508,-0.011672542430460453,2026-04-30 16:32:14.902603,-22.87293293275425,-92.08899002093432,434.34636308256904,7.6509011327539564,,
31.382003784179688,1022.36328125,35.780879974365234,0,0,0,0,341.2768054094051,336.95420407994663,70.67189221004107,33.381126403808594,-7.353585720062256,-32.31623077392578,0.019395673647522926,0.028892317786812782,0.007798299193382263,0.006029879674315453,0.04847848787903786,-0.010730825364589691,2026-04-30 16:32:16.654653,-22.96862357771626,-92.00328225381541,434.3500589125215,7.6508839581362915,,
31.36422348022461,1022.364013671875,35.747222900390625,0,0,0,0,344.8282817966637,339.08068273273983,69.66169357141784,33.85118103027344,-7.400157451629639,-32.98029327392578,0.015031646937131882,0.02840672992169857,0.00682351179420948,0.008863124996423721,0.04613713175058365,-0.006818829104304314,2026-04-30 16:32:18.549853,-23.064256818396835,-91.91744278386943,434.35370688997864,7.650866802560186,,
31.488685607910156,1022.347900390625,35.51469421386719,0,0,0,0,347.5117290790992,340.76234873093057,68.97620212593702,34.083091735839844,-7.526813507080078,-32.825504302978516,0.018183445557951927,0.02840672992169857,0.010722661390900612,0.005047908052802086,0.04154779762029648,-0.008970832452178001,2026-04-30 16:32:20.302792,-23.159832316627085,-91.83147088919195,434.3573070551356,7.65084966623583,,
31.36422348022461,1022.359619140625,35.61872100830078,0,0,0,0,349.4261149902379,342.20939773113133,68.63411210135693,33.970577239990234,-7.385234832763672,-32.23023223876953,0.01745610684156418,0.029377900063991547,0.010478964075446129,0.007561199367046356,0.042618926614522934,-0.008342744782567024,2026-04-30 16:32:22.060343,-23.207598306287693,-91.78843505647615,434.35908922078033,7.650838038778261,Photo9.jpg,Unknown
31.417564392089844,1022.345703125,35.61260223388672,0,0,0,0,351.18276451268434,343.654793825553,68.1874382202056,34.07755661010742,-7.230985641479492,-32.49811553955078,0.017940998077392578,0.02694997750222683,0.009504176676273346,0.007380152121186256,0.03785223886370659,-0.007791072130203247,2026-04-30 16:32:23.942414,-23.30308655390256,-91.70226316710203,434.3626177437354,7.650823998942663,,
31.382003784179688,1022.34814453125,35.48715591430664,0,0,0,0,352.5888818967365,344.3435176580585,67.66447112602523,33.95570373535156,-7.3372907638549805,-32.438575744628906,0.01697121374309063,0.030106279999017715,0.012428538873791695,0.0093028973788023,0.03322405740618706,-0.007314596325159073,2026-04-30 16:32:25.691396,-23.398516207880665,-91.61595704018839,434.3660985566212,7.650806912194765,,
31.453125,1022.33447265625,35.496334075927734,0,0,0,0,353.3797900549805,344.9041515379642,67.56906021350933,33.871891021728516,-7.4690022468566895,-32.27559280395508,0.01721366122364998,0.0276783537119627,0.009260480292141438,0.004067039117217064,0.03511065989732742,-0.00567866675555706,2026-04-30 16:32:27.439169,-23.493886925417534,-91.52951594738877,434.3695317010179,7.650789845577118,,
31.506465911865234,1022.339599609375,35.52387237548828,0,0,0,0,354.14183682199973,345.54633616901253,67.29596192973554,33.801719665527344,-7.512670040130615,-32.99666976928711,0.019395673647522926,0.03180582821369171,0.005848724395036697,0.005532499402761459,0.03075598180294037,-0.007329117506742477,2026-04-30 16:32:29.308039,-23.589198362364712,-91.44293915851097,434.3729172188914,7.650772799295559,,
31.399784088134766,1022.352783203125,35.64319610595703,0,0,0,0,354.2334621021682,345.75591198595794,67.61372965068122,34.11234664916992,-7.67964506149292,-33.052223205566406,0.017940998077392578,0.02913510985672474,0.008773086592555046,0.005200877785682678,0.031141027808189392,-0.007749415934085846,2026-04-30 16:32:31.070038,-23.636831742701307,-91.399599649346,434.37459213110014,7.650761239523138,,
31.310882568359375,1022.360595703125,35.73192596435547,0,0,0,0,354.4673478430301,346.2403670585032,67.12905942717711,33.82551193237305,-7.676456451416016,-32.57402038574219,0.019880564883351326,0.027192767709493637,0.009991570375859737,0.005520280450582504,0.02622067928314209,-0.006119471043348312,2026-04-30 16:32:32.821064,-23.732053610526222,-91.31281794317644,434.37790628872153,7.650747268493852,,
31.453125,1022.379638671875,34.985382080078125,0,0,0,0,354.50536595661083,346.3126927853981,67.3541414810857,33.598731994628906,-7.6724348068237305,-32.349700927734375,0.020365456119179726,0.029377900063991547,0.01096635777503252,0.0066106244921684265,0.025682471692562103,-0.0036560241132974625,2026-04-30 16:32:34.701639,-23.827215331454894,-91.22589870732298,434.38117292643074,7.650730274150702,,
31.470905303955078,1022.356689453125,35.496334075927734,0,0,0,0,354.38718874293085,346.43916056807,67.01673013608708,33.429161071777344,-7.666057586669922,-32.37670135498047,0.01575898379087448,0.030106279999017715,0.00511763384565711,0.0032625310122966766,0.024554550647735596,-0.005069032311439514,2026-04-30 16:32:36.443940,-23.922316556568965,-91.13884120508975,434.38439208755153,7.650713300901258,,
31.36422348022461,1022.369384765625,35.410667419433594,0,0,0,0,354.09869734720195,346.37107211978145,67.0370431186787,33.607791900634766,-7.111712455749512,-32.21208190917969,0.01697121374309063,0.027921147644519806,0.009991570375859737,0.003323901444673538,0.024455808103084564,-0.004230525344610214,2026-04-30 16:32:38.189742,-23.96984437378004,-91.09526037335804,434.38598387803904,7.650701796051385,Photo18.jpg,Unknown
31.559804916381836,1022.356689453125,35.49021530151367,0,0,0,0,353.8491636429515,346.26245503650534,66.98646556787476,33.48828887939453,-7.294182300567627,-32.55219268798828,0.01745610684156418,0.03180582821369171,0.010722661390900612,0.003321360796689987,0.0214204341173172,-0.004248801618814468,2026-04-30 16:32:40.051416,-24.06485419792256,-91.00799408617776,434.3891319063405,7.65068788094391,,
31.382003784179688,1022.375244140625,35.62178039550781,0,0,0,0,353.30506565102644,345.7834786294481,66.87216235211459,33.88722229003906,-7.477826118469238,-32.99054718017578,0.019638117402791977,0.027921147644519806,0.009747873991727829,0.0019620023667812347,0.018254123628139496,-0.004039429128170013,2026-04-30 16:32:41.802941,-24.159802647883357,-90.92058768271542,434.39223256803325,7.6506709613391255,,
31.488685607910156,1022.372314453125,35.5881233215332,0,0,0,0,352.7558561162812,345.45773154000454,66.69519898090873,33.726043701171875,-7.482421398162842,-33.09749984741211,0.019638117402791977,0.029377900063991547,0.007067208644002676,0.000612504780292511,0.017948687076568604,-0.0022881999611854553,2026-04-30 16:32:43.554591,-24.25468936986833,-90.83304041973278,434.3952859077681,7.650654063753155,,
31.453125,1022.3779296875,35.340293884277344,0,0,0,0,352.32840921764347,345.2503140628369,66.81401695171027,33.86924362182617,-7.392666339874268,-33.82051086425781,0.019153228029608727,0.029620693996548653,0.005848724395036697,0.003036249428987503,0.017328575253486633,-0.004145756363868713,2026-04-30 16:32:45.458636,-24.349514008667505,-90.74535155211699,434.39829197059044,7.6506371882725634,,
31.506465911865234,1022.3662109375,35.2546272277832,0,0,0,0,351.3410865900979,344.48544898901133,66.80821812110493,34.0451545715332,-7.2401299476623535,-33.895469665527344,0.018910780549049377,0.02840672992169857,0.0075546023435890675,0.002540871500968933,0.015080548822879791,-0.0018511377274990082,2026-04-30 16:32:47.210532,-24.444276207649732,-90.65752033287545,434.40125080189955,7.650620335036252,,
31.470905303955078,1022.351806640625,35.42596435546875,0,0,0,0,350.5754522662171,344.04016163626153,67.14515135286166,34.03507614135742,-7.326773166656494,-33.91032791137695,0.018425889313220978,0.027192767709493637,0.009747873991727829,0.001134674996137619,0.014317609369754791,-0.0031575262546539307,2026-04-30 16:32:48.962539,-24.49163378037043,-90.61355110744547,434.40271252003913,7.6506089209874455,,
31.488685607910156,1022.3388671875,35.321937561035156,0,0,0,0,349.98895758256646,343.6099126525168,67.0899292734221,34.08655548095703,-7.1654839515686035,-33.910945892333984,0.01721366122364998,0.027192767709493637,0.008285692892968655,0.001006290316581726,0.013659946620464325,-0.002940455451607704,2026-04-30 16:32:50.844896,-24.58630164781084,-90.52550495603865,434.4056005900593,7.650595097514315,,
31.453125,1022.360107421875,35.499393463134766,0,0,0,0,348.97743730233884,343.15147718561474,67.00887541854156,34.07079315185547,-7.1137566566467285,-33.942108154296875,0.018425889313220978,0.02986348792910576,0.008041995577514172,0.003242708742618561,0.010421350598335266,-0.0018766671419143677,2026-04-30 16:32:52.602599,-24.680906177576304,-90.4373145772868,434.4084415437528,7.650578301136402,,
31.435344696044922,1022.380126953125,35.3586540222168,0,0,0,0,348.216362129729,342.6770829817169,66.86199220044044,34.155799865722656,-6.761411666870117,-33.8797607421875,0.017940998077392578,0.027921147644519806,0.007798299193382263,0.0013319812715053558,0.012332826852798462,-0.0026449598371982574,2026-04-30 16:32:54.357884,-24.775447007990667,-90.34897921759675,434.411235427835,7.650561527847209,Photo27.jpg,Unknown
31.506465911865234,1022.366943359375,35.57894515991211,0,0,0,0,347.3208918861418,342.23533366695716,66.88594567385968,34.09762191772461,-6.936099529266357,-33.82762908935547,0.018668334931135178,0.028892317786812782,0.009260480292141438,0.002987165004014969,0.01097838580608368,-0.0009999386966228485,2026-04-30 16:32:56.250671,-24.86992377591348,-90.26049812148997,434.41398228939124,7.650544777903799,,
31.506465911865234,1022.35986328125,35.37089157104492,0,0,0,0,346.55382066121433,341.8684534707845,66.93961047016846,33.91277313232422,-6.958991050720215,-33.89971160888672,0.020365456119179726,0.027435559779405594,0.008529389277100563,0.0028260014951229095,0.00992942601442337,-0.0011802688241004944,2026-04-30 16:32:58.013734,-24.91713802255764,-90.21620268567435,434.41533810154397,7.6505334419235425,,
31.382003784179688,1022.364013671875,35.43208312988281,0,0,0,0,345.82758286846615,341.24050636906105,66.94583277250234,34.040138244628906,-6.933033466339111,-34.0040283203125,0.018910780549049377,0.031563032418489456,0.012428538873791695,0.0017638243734836578,0.00919930636882782,-0.002850109711289406,2026-04-30 16:32:59.766800,-25.011518012637207,-90.12750156427488,434.4180145184282,7.6505196971440945,,
31.506465911865234,1022.370849609375,35.39537048339844,0,0,0,0,345.0900470890571,340.843769708479,66.81531468765257,33.62339782714844,-6.9015398025512695,-34.04186248779297,0.018183445557951927,0.028649523854255676,0.006336118094623089,0.0022535957396030426,0.009457819163799286,-0.001196693629026413,2026-04-30 16:33:01.694749,-25.105833025921143,-90.0386528094729,434.420644032135,7.650503006391333,,
31.559804916381836,1022.39306640625,35.377010345458984,0,0,0,0,343.9286792886286,340.28412620600295,67.35462642451678,33.81977462768555,-6.550836563110352,-34.36125183105469,0.01769855059683323,0.02986348792910576,0.007067208644002676,0.0042083002626895905,0.008852146565914154,-0.004382006824016571,2026-04-30 16:33:03.464840,-25.200082694083523,-89.9496556591554,434.4232266910385,7.650486339816219,,
31.506465911865234,1022.376953125,35.60342025756836,0,0,0,0,342.9397549817227,339.49789971554816,67.41161752295137,34.01035690307617,-6.462341785430908,-34.234046936035156,0.018425889313220978,0.02986348792910576,0.012184842489659786,0.00020233914256095886,0.007105089724063873,-0.0024909712374210358,2026-04-30 16:33:05.217298,-25.294266647295565,-89.8605093493068,434.42576254388314,7.650469697610441,,
31.524246215820312,1022.374267578125,35.54222869873047,0,0,0,0,342.08085869359354,339.02323571917816,67.49691975549565,33.86403274536133,-6.408877849578857,-34.6237678527832,0.01672876812517643,0.028163937851786613,0.008285692892968655,-0.0016218088567256927,0.0066247135400772095,-0.003618380054831505,2026-04-30 16:33:07.103672,-25.34133386480975,-89.81588002028548,434.42701293336177,7.65045844312697,,
31.453125,1022.38134765625,35.750282287597656,0,0,0,0,341.30850943998496,338.41437558109027,67.53957428686239,33.982330322265625,-6.739684104919434,-34.958492279052734,0.019153228029608727,0.02694997750222683,0.01096635777503252,0.0019044727087020874,0.00854339450597763,-0.0008565653115510941,2026-04-30 16:33:08.863433,-25.435418548855317,-89.72650853446325,434.42947866929535,7.6504447802271285,,
31.470905303955078,1022.367919921875,35.24544906616211,0,0,0,0,340.49642556087986,338.087947180277,67.5326689656115,33.856693267822266,-6.762669563293457,-35.074623107910156,0.019880564883351326,0.02986348792910576,0.008773086592555046,0.002145037055015564,0.007747828960418701,-0.0025679785758256912,2026-04-30 16:33:10.607738,-25.52943658674469,-89.63698597076471,434.43189772260394,7.650428199737959,Photo36.jpg,Unknown
31.524246215820312,1022.36669921875,35.340293884277344,0,0,0,0,339.5454070963202,337.44562936053984,67.33699770626897,33.673179626464844,-6.955979824066162,-35.129459381103516,0.019395673647522926,0.029620693996548653,0.01023526769131422,0.0005966350436210632,0.006648018956184387,-0.0015530046075582504,2026-04-30 16:33:12.503016,-25.623387603317163,-89.5473115585174,434.4342701432897,7.650411644399707,,
31.577585220336914,1022.363037109375,35.31275939941406,0,0,0,0,338.6651169481633,337.07397144704277,67.31574898776107,33.78104782104492,-6.74764347076416,-34.4916877746582,0.019395673647522926,0.0276783537119627,0.007067208644002676,-0.0006390474736690521,0.005350619554519653,-0.0008708760142326355,2026-04-30 16:33:14.264845,-25.71727122186923,-89.45748452514728,434.43659598171325,7.650395114412168,,
31.524246215820312,1022.36083984375,35.0649299621582,0,0,0,0,337.8202584063259,336.49482604693907,67.75156286813207,33.740665435791016,-6.793820381164551,-33.85051345825195,0.018910780549049377,0.030834658071398735,0.01096635777503252,0.0016305260360240936,0.002877846360206604,-0.0011043325066566467,2026-04-30 16:33:16.026114,-25.764187638743813,-89.41251353359405,434.4377414484097,7.650383944342859,,
31.506465911865234,1022.361572265625,35.511634826660156,0,0,0,0,337.01252877281667,336.19426015741806,68.14236580187269,33.63761901855469,-6.813149452209473,-33.702640533447266,0.018425889313220978,0.02913510985672474,0.010722661390900612,0.0022087767720222473,0.007630094885826111,-0.002833399921655655,2026-04-30 16:33:17.918720,-25.857969450547973,-89.32245611579344,434.43999750863986,7.6503703673977785,,
31.542024612426758,1022.353759765625,35.260746002197266,0,0,0,0,336.12007405774796,335.96989356582503,68.33188306077304,33.78433609008789,-6.71334981918335,-34.192996978759766,0.018910780549049377,0.02840672992169857,0.0065798149444162846,0.003574572503566742,0.0048957690596580505,-0.002062210813164711,2026-04-30 16:33:19.682027,-25.951682915760976,-89.23224413709978,434.44220711405706,7.650353901541565,,
31.577585220336914,1022.36279296875,35.340293884277344,0,0,0,0,335.28716663941077,335.13647729839465,68.7549518081528,33.97176742553711,-6.694730758666992,-34.383522033691406,0.019395673647522926,0.028649523854255676,0.009260480292141438,0.0010573789477348328,0.0028619542717933655,0.0003714822232723236,2026-04-30 16:33:21.434795,-26.04532765220369,-89.14187681826822,434.4443703162624,7.650337461788479,,
31.470905303955078,1022.364990234375,35.416786193847656,0,0,0,0,334.73881002453817,334.7988764156466,68.92292665041091,33.55684280395508,-6.731741428375244,-34.3536262512207,0.018910780549049377,0.029620693996548653,0.010478964075446129,0.002745363861322403,0.0013987943530082703,-0.001089850440621376,2026-04-30 16:33:23.331136,-26.138903276112188,-89.05135337814163,434.44648716720167,7.650321048541177,,
31.559804916381836,1022.36669921875,35.38924789428711,0,0,0,0,333.9123588425139,334.6162337421458,69.22324323802721,33.63176727294922,-6.63893461227417,-34.58224105834961,0.018910780549049377,0.028163937851786613,0.008529389277100563,0.0031610392034053802,0.003594599664211273,-0.003080887719988823,2026-04-30 16:33:25.082852,-26.185665050505037,-89.00603286795933,434.4475282272788,7.650309967122922,,
31.577585220336914,1022.40771484375,35.46574020385742,0,0,0,0,333.20532668793817,334.1777526729039,69.60967485069902,33.712867736816406,-6.768989086151123,-33.6979866027832,0.01672876812517643,0.02840672992169857,0.013403326272964478,0.0012372471392154694,0.004855751991271973,-0.000295514240860939,2026-04-30 16:33:26.833231,-26.27913628256532,-88.91527377706129,434.4495756494798,7.650296478467348,Photo45.jpg,Unknown
31.595365524291992,1022.36474609375,35.46574020385742,0,0,0,0,332.63539009038294,334.071191476568,69.58810511330012,33.74410629272461,-6.786942481994629,-34.1265869140625,0.019395673647522926,0.0276783537119627,0.0065798149444162846,-0.0011368133127689362,0.0028050467371940613,0.000673959031701088,2026-04-30 16:33:28.756173,-26.37253743568535,-88.8243566036477,434.4515768518204,7.650280131967314,,
31.524246215820312,1022.35693359375,35.41984558105469,0,0,0,0,332.09584954218155,333.8294762044831,69.87317671868894,33.75525665283203,-6.755428314208984,-34.52762985229492,0.018910780549049377,0.030349070206284523,0.007067208644002676,0.0012558996677398682,0.0058602094650268555,-0.0013977903872728348,2026-04-30 16:33:30.506252,-26.465868120479445,-88.73328055989316,434.45353188743684,7.650263812596181,,
31.453125,1022.369873046875,35.435142517089844,0,0,0,0,331.42531279588843,333.5301380414654,70.43349128725094,33.49501037597656,-6.875836372375488,-34.556251525878906,0.019880564883351326,0.0276783537119627,0.01023526769131422,0.001970425248146057,0.0011155828833580017,-0.00219167023897171,2026-04-30 16:33:32.251487,-26.559127945933618,-88.64204485606749,434.4554408098529,7.650247520579534,,
31.453125,1022.3349609375,35.36477279663086,0,0,0,0,331.100564621611,333.3872231632721,69.914799891491,33.85037612915039,-6.861944198608398,-34.610008239746094,0.01745610684156418,0.028649523854255676,0.009504176676273346,-0.0001477859914302826,0.004207216203212738,-0.001201525330543518,2026-04-30 16:33:34.154511,-26.605731163768848,-88.59636688431726,434.4563779954251,7.650236530264303,,
31.559804916381836,1022.367431640625,35.4932746887207,0,0,0,0,330.54263037397476,333.43383066662096,70.17505741962516,33.953208923339844,-6.76668643951416,-34.58732986450195,0.019153228029608727,0.02913510985672474,0.007067208644002676,0.0010288655757904053,0.003951109945774078,-0.0025450270622968674,2026-04-30 16:33:35.907986,-26.69888396347935,-88.50489020547597,434.4582178491037,7.650223134145874,,
31.542024612426758,1022.363037109375,35.37089157104492,0,0,0,0,330.2035729533862,333.15203925958104,70.56618820244594,33.89743423461914,-6.566208839416504,-34.791988372802734,0.018183445557951927,0.030349070206284523,0.009260480292141438,0.0006361342966556549,0.0028468817472457886,-0.0018623024225234985,2026-04-30 16:33:37.661349,-26.791964919134145,-88.41325188390266,434.4600117248292,7.650206911509769,,
31.577585220336914,1022.376953125,35.26992416381836,0,0,0,0,329.7406022408752,333.0747607917642,70.86720146935758,33.748497009277344,-6.547690391540527,-34.69866943359375,0.020607901737093925,0.028649523854255676,0.01023526769131422,0.0009050816297531128,0.002310514450073242,-0.0005887430161237717,2026-04-30 16:33:39.548702,-26.88497363394834,-88.3214511232051,434.4617596772996,7.650190717017742,,
31.524246215820312,1022.3798828125,35.474918365478516,0,0,0,0,329.26328130091804,332.8949594769582,70.76073248057541,33.73419952392578,-6.455685138702393,-35.3332405090332,0.018668334931135178,0.026464389637112617,0.012428538873791695,0.003508336842060089,0.0033606812357902527,-0.0013969633728265762,2026-04-30 16:33:41.283509,-26.97790970946598,-88.22948712509914,434.46346176154384,7.650174550502584,,
31.506465911865234,1022.386474609375,35.36477279663086,0,0,0,0,328.9945816589697,332.7900306958339,70.69305213608976,33.73038864135742,-6.530306339263916,-35.11018371582031,0.021092794835567474,0.028649523854255676,0.00682351179420948,-0.0028236135840415955,0.0008184835314750671,-0.0007798243314027786,2026-04-30 16:33:43.020505,-27.02435038251292,-88.18344366202906,434.4642956203679,7.650163655435231,Photo54.jpg,Unknown
31.506465911865234,1022.38037109375,35.54222869873047,0,0,0,0,328.3899084268431,332.1459660552165,70.82279840956332,33.49568557739258,-6.47438907623291,-34.601966857910156,0.019153228029608727,0.028649523854255676,0.009260480292141438,-0.0013011321425437927,0.0010549500584602356,-0.0014135036617517471,2026-04-30 16:33:44.881282,-27.117176748307564,-88.0912333068456,434.4659290061909,7.650150354924155,,
31.595365524291992,1022.38671875,35.3586540222168,0,0,0,0,327.9068774487398,331.83673948582793,70.9687117408023,33.84718704223633,-6.64608097076416,-34.97047424316406,0.018183445557951927,0.028892317786812782,0.008529389277100563,-0.0021762102842330933,0.0009410455822944641,-0.0007750075310468674,2026-04-30 16:33:46.624105,-27.20992947129877,-87.9988577102137,434.4675166628249,7.650134260513686,,
31.506465911865234,1022.374755859375,35.18119812011719,0,0,0,0,327.46371086972727,331.56483990025345,71.16218367923209,33.87931442260742,-6.609450340270996,-34.93844985961914,0.018183445557951927,0.0276783537119627,0.014621810987591743,0.0010910704731941223,0.0005394443869590759,-0.0004483833909034729,2026-04-30 16:33:48.352868,-27.302608147110043,-87.90631606719923,434.46905864647124,7.650118195294303,,
31.61314582824707,1022.389892578125,35.410667419433594,0,0,0,0,327.2119398516368,331.2996031642144,70.81971799424765,33.633426666259766,-6.826441287994385,-34.87754821777344,0.019638117402791977,0.029377900063991547,0.006336118094623089,-0.0006824024021625519,0.0031169503927230835,0.0009979717433452606,2026-04-30 16:33:50.204627,-27.395212369651563,-87.81360757098444,434.4705550136523,7.650102159359305,,
31.524246215820312,1022.378173828125,35.20873260498047,0,0,0,0,326.74423923312565,331.3410794879493,71.0668342384187,33.3983268737793,-6.676426410675049,-35.67063522338867,0.01600143127143383,0.027435559779405594,0.007798299193382263,-0.00020091980695724487,0.001805722713470459,0.0010461099445819855,2026-04-30 16:33:51.943448,-27.441486433572276,-87.76719050027609,434.4712861088201,7.650091362553729,,
31.595365524291992,1022.37939453125,35.24238967895508,0,0,0,0,326.1309326418881,331.260237368933,71.21216017338907,33.71041488647461,-6.717496871948242,-35.47025680541992,0.019153228029608727,0.02694997750222683,0.0048739369958639145,-0.002269826829433441,0.0008452609181404114,0.00013106130063533783,2026-04-30 16:33:53.679236,-27.53397821101782,-87.67423020734064,434.4727141579988,7.65007816101716,,
31.506465911865234,1022.36865234375,35.162837982177734,0,0,0,0,325.8253909595567,331.16590562630597,71.32162761521687,33.52472686767578,-6.443562984466553,-35.26160430908203,0.018425889313220978,0.030349070206284523,0.0075546023435890675,-0.000713832676410675,0.0025372281670570374,-0.0010037794709205627,2026-04-30 16:33:55.516049,-27.62639451240808,-87.58110103589046,434.47409673345464,7.65006219958645,,
31.648706436157227,1022.373779296875,35.30970001220703,0,0,0,0,325.63403637976967,331.03202025819536,71.37731414751998,33.23078155517578,-6.505617618560791,-35.05476379394531,0.017940998077392578,0.030349070206284523,0.006336118094623089,-0.001957561820745468,0.0024056509137153625,-0.0006921887397766113,2026-04-30 16:33:57.257731,-27.718734925577944,-87.48780217251036,434.475433892856,7.650046268161165,,
31.542024612426758,1022.375,35.13530349731445,0,0,0,0,325.380868587994,330.64310587176027,71.45489826630215,33.3359489440918,-6.654394626617432,-35.36671447753906,0.01769855059683323,0.02986348792910576,0.009747873991727829,0.0013445988297462463,-0.0010508745908737183,0.00017526373267173767,2026-04-30 16:33:58.993199,-27.764876544799062,-87.44108885163985,434.4760854596434,7.650035550180954,Photo63.jpg,Unknown
31.524246215820312,1022.354736328125,35.291343688964844,0,0,0,0,325.00106225881706,330.4484488955095,71.2587352333394,33.41434860229492,-6.511715888977051,-35.245914459228516,0.01745610684156418,0.029620693996548653,0.008529389277100563,0.0009998157620429993,0.0019565746188163757,-0.001367243006825447,2026-04-30 16:34:00.848578,-27.857102348985006,-87.34753392109647,434.47735460377953,7.650022428138356,,
31.559804916381836,1022.3759765625,35.318878173828125,0,0,0,0,324.5528515851025,330.3305086040163,71.28818700904048,33.507728576660156,-6.707329750061035,-35.334983825683594,0.018425889313220978,0.031563032418489456,0.0038991495966911316,-0.0020697228610515594,0.0012966915965080261,0.0022568311542272568,2026-04-30 16:34:02.607604,-27.949251226832175,-87.25380725686688,434.4785784774267,7.65000657318954,,
31.577585220336914,1022.385009765625,35.36783218383789,0,0,0,0,324.3457431739948,330.5250802029024,71.61508669290646,33.40172576904297,-6.490307807922363,-34.987953186035156,0.01769855059683323,0.027435559779405594,0.007798299193382263,-0.0006114654242992401,0.001502998173236847,-0.001301489770412445,2026-04-30 16:34:04.353504,-28.041322759981643,-87.15990803897773,434.47975713937103,7.6499907491050685,,
31.666486740112305,1022.3671875,35.30358123779297,0,0,0,0,324.2379183926624,330.0505801310725,71.21912013615332,33.58850860595703,-6.640325546264648,-35.24929428100586,0.019638117402791977,0.027192767709493637,0.009260480292141438,-0.00022667646408081055,-0.0003375932574272156,-0.0016050487756729126,2026-04-30 16:34:06.213697,-28.13331652828537,-87.0658354455902,434.4808906487151,7.649974956135926,,
31.577585220336914,1022.38037109375,35.26992416381836,0,0,0,0,324.048862171531,329.94995436912524,71.28671851836893,33.89740753173828,-6.640767574310303,-35.5013542175293,0.018183445557951927,0.027921147644519806,0.01096635777503252,0.0011948011815547943,0.0007864013314247131,-0.0018948446959257126,2026-04-30 16:34:07.949571,-28.17928411883081,-87.01873387575243,434.48144048971426,7.649964342478189,,
31.488685607910156,1022.376953125,35.18119812011719,0,0,0,0,323.8351182316446,329.9337019339952,71.26518293191589,33.67461395263672,-7.1670966148376465,-35.402767181396484,0.019638117402791977,0.028649523854255676,0.009260480292141438,0.001667119562625885,0.0028418228030204773,0.0008423943072557449,2026-04-30 16:34:09.701607,-28.271160448141934,-86.92439967409776,434.48250638165337,7.6499513258130944,,
31.61314582824707,1022.325439453125,34.211299896240234,0,0,0,0,323.57818700563627,329.8173633218624,71.28167100857229,33.264163970947266,-6.975965976715088,-34.64640426635742,0.018910780549049377,0.025736013427376747,0.012428538873791695,0.00251803919672966,-0.0004988759756088257,-0.0012355167418718338,2026-04-30 16:34:11.563852,-28.362957954330682,-86.8298900342239,434.48352727011934,7.649935611685025,,
31.61314582824707,1022.36669921875,35.3494758605957,0,0,0,0,323.2770644556979,329.7543889777149,71.38416482725751,33.14724349975586,-6.600262641906738,-34.54534149169922,0.019395673647522926,0.0276783537119627,0.008041995577514172,0.00093088299036026,-0.0013821199536323547,-0.0008489303290843964,2026-04-30 16:34:13.316049,-28.454676210899475,-86.7352041278031,434.4845032153089,7.64991992955714,,
31.63092613220215,1022.359375,35.33417510986328,0,0,0,0,323.2581619071699,329.5798195878131,71.0292750281728,33.25201416015625,-6.477991580963135,-34.70484161376953,0.018910780549049377,0.028163937851786613,0.006336118094623089,-0.0014092177152633667,0.000976957380771637,3.308616578578949e-05,2026-04-30 16:34:15.087798,-28.500505486794253,-86.6877948152798,434.48497435306854,7.64990939962889,Photo72.jpg,Unknown
31.648706436157227,1022.347412109375,35.499393463134766,0,0,0,0,323.1333470302771,329.5384901131454,71.56448182134584,33.29426574707031,-6.5240478515625,-34.500606536865234,0.019395673647522926,0.030349070206284523,0.009747873991727829,0.0006771646440029144,1.7151236534118652e-05,0.0015218984335660934,2026-04-30 16:34:17.000394,-28.592104065231666,-86.59284295189707,434.48588299688436,7.649896466860297,,
31.559804916381836,1022.357666015625,35.39537048339844,0,0,0,0,322.9836122081975,329.54139294354263,71.71507383216628,33.14901351928711,-6.319767475128174,-34.18838119506836,0.018910780549049377,0.029620693996548653,0.011210055090487003,-0.00028814375400543213,0.0011527091264724731,-0.0018019229173660278,2026-04-30 16:34:18.760117,-28.683622319750242,-86.49771274310234,434.4867468492648,7.649880865691558,,
31.666486740112305,1022.372802734375,35.32805633544922,0,0,0,0,322.73391073742556,329.3608778739683,71.99863596574853,33.140380859375,-6.050775051116943,-34.50743865966797,0.018183445557951927,0.02840672992169857,0.008529389277100563,-0.004517938941717148,-0.00010974705219268799,0.002396736294031143,2026-04-30 16:34:20.502926,-28.775059817382203,-86.40240335414757,434.4875659714826,7.64986529724017,,
31.63092613220215,1022.370361328125,35.42290496826172,0,0,0,0,322.38573842938956,329.26315835751296,72.16684303443843,33.380035400390625,-6.318784713745117,-35.4443244934082,0.018668334931135178,0.031077450141310692,0.009504176676273346,-0.0032544247806072235,-0.0006933063268661499,-1.8931925296783447e-05,2026-04-30 16:34:22.408211,-28.866416123289106,-86.30691394846303,434.4883404251059,7.649849761816184,,
31.595365524291992,1022.380615234375,35.2117919921875,0,0,0,0,322.1091977302741,329.50436648805197,72.14269148553328,33.52415466308594,-6.551524639129639,-35.703453063964844,0.017940998077392578,0.027435559779405594,0.0075546023435890675,0.0019445531070232391,0.0005487054586410522,0.002113761380314827,2026-04-30 16:34:24.160493,-28.912063692944795,-86.25910147742422,434.48871092052195,7.649839342162841,,
31.684267044067383,1022.37255859375,35.257686614990234,0,0,0,0,321.8675388072499,329.4751571840664,72.24173605868762,33.547733306884766,-6.580853462219238,-35.35502243041992,0.019153228029608727,0.02840672992169857,0.010722661390900612,0.0034119486808776855,-9.753555059432983e-05,-0.0005730576813220978,2026-04-30 16:34:25.910676,-29.003297391825573,-86.16334047411263,434.48941848738104,7.649826520838039,,
31.684267044067383,1022.376708984375,35.380069732666016,0,0,0,0,321.34240654310264,329.48778961893635,72.36942644522101,33.42034149169922,-6.622068405151367,-35.48884963989258,0.019153228029608727,0.028163937851786613,0.008285692892968655,-0.0005318149924278259,0.0026504099369049072,-0.0010916776955127716,2026-04-30 16:34:27.806685,-29.094448803633902,-86.06739735472304,434.4900815409037,7.649811068728056,,
31.595365524291992,1022.371337890625,35.202613830566406,0,0,0,0,321.22359198739565,329.4838554299744,72.48547135921953,33.56231689453125,-6.59989070892334,-35.57132339477539,0.01721366122364998,0.028892317786812782,0.010722661390900612,-0.0009167753159999847,-0.0007425844669342041,-0.0007896330207586288,2026-04-30 16:34:29.552781,-29.185517486903564,-85.97127127636696,434.4907001437159,7.649795650332994,,
31.61314582824707,1022.381591796875,35.2546272277832,0,0,0,0,321.4741574770976,329.43836295500756,71.9547520003312,33.49177551269531,-6.367641448974609,-35.641578674316406,0.018183445557951927,0.029620693996548653,0.007310905493795872,0.002731945365667343,0.00016298890113830566,0.00010380521416664124,2026-04-30 16:34:31.313783,-29.276502998254614,-85.87496139436212,434.4912743587429,7.649780266075333,Photo81.jpg,Unknown
31.63092613220215,1022.3994140625,35.42902374267578,0,0,0,0,321.0653467496102,329.5314891692461,72.31676568672022,33.34974670410156,-6.125110626220703,-35.55537033081055,0.019395673647522926,0.030834658071398735,0.010478964075446129,0.0005203336477279663,-0.0007293373346328735,-0.00047407113015651703,2026-04-30 16:34:33.201814,-29.36740489237695,-85.77846686224939,434.49180424919723,7.649764915844695,,
31.71982765197754,1022.384765625,35.44432067871094,0,0,0,0,321.03293067180937,329.4699457497297,72.203384546498,33.209293365478516,-6.312131404876709,-35.19879150390625,0.01697121374309063,0.029620693996548653,0.009016782976686954,-0.0027720630168914795,-0.0006959959864616394,0.00040339864790439606,2026-04-30 16:34:34.962551,-29.412824343290048,-85.73015008739807,434.4920525925427,7.6497546361106945,,
31.648706436157227,1022.38623046875,35.34335708618164,0,0,0,0,320.90133000197613,329.5036322427162,72.09516702928832,33.45918655395508,-6.109558582305908,-35.05867385864258,0.018910780549049377,0.030349070206284523,0.008529389277100563,-0.0012084729969501495,0.0014214441180229187,-0.00014348328113555908,2026-04-30 16:34:36.715222,-29.503599972380105,-85.63337698912909,434.4925161153087,7.649741955279722,,
31.559804916381836,1022.38818359375,35.21485137939453,0,0,0,0,320.8985466998893,329.34980613732375,72.37992444597532,33.48040008544922,-5.806419849395752,-34.9769172668457,0.018668334931135178,0.027921147644519806,0.01023526769131422,-0.0010230094194412231,0.0016235187649726868,0.0013773441314697266,2026-04-30 16:34:38.599415,-29.594290862480115,-85.53641711685823,434.49293547282014,7.649726691520788,,
31.61314582824707,1022.403564453125,35.4014892578125,0,0,0,0,320.94994728848826,329.071325664484,72.15693242995275,33.06639099121094,-5.615865707397461,-35.252532958984375,0.019153228029608727,0.027921147644519806,0.007798299193382263,-9.534135460853577e-05,-0.0008350759744644165,-0.0004547666758298874,2026-04-30 16:34:40.353690,-29.68489656146154,-85.43926961794861,434.49331072930454,7.649711463005735,,
31.577585220336914,1022.3837890625,35.32499694824219,0,0,0,0,320.7966232019998,329.059656286287,71.64142390234603,33.0479736328125,-5.879608631134033,-36.16624450683594,0.01721366122364998,0.02986348792910576,0.009260480292141438,-3.635138273239136e-05,0.002172693610191345,-0.0013108830899000168,2026-04-30 16:34:42.107017,-29.730167322453532,-85.39062524157934,434.4934818398151,7.649701274809321,,
31.61314582824707,1022.37890625,35.30970001220703,0,0,0,0,320.5232073144296,329.07002792854166,71.92063520542699,33.37078857421875,-5.846467971801758,-35.84209442138672,0.019638117402791977,0.030106279999017715,0.009504176676273346,0.000466957688331604,0.0027700886130332947,-0.00038335658609867096,2026-04-30 16:34:43.977801,-29.82064438269911,-85.29319470022297,434.49379106583183,7.6496886861479485,,
31.63092613220215,1022.401611328125,34.95478439331055,0,0,0,0,320.392754116377,329.0827115898304,71.74740794769713,33.56501388549805,-5.798000335693359,-35.70857620239258,0.018668334931135178,0.030106279999017715,0.008285692892968655,0.002913273870944977,0.0008508935570716858,-0.0009440183639526367,2026-04-30 16:34:45.727476,-29.911035112856215,-85.19557439304852,434.49405635265794,7.649673545914923,,
31.70204734802246,1022.416259765625,35.04045486450195,0,0,0,0,320.3606317367104,329.21093473111904,71.78188674262735,33.37225341796875,-5.952412128448486,-35.78317642211914,0.018910780549049377,0.027921147644519806,0.009016782976686954,0.001629699021577835,0.0010356977581977844,-6.303191184997559e-06,2026-04-30 16:34:47.473796,-30.001339053852195,-85.09776346136915,434.49427776552784,7.649658441520796,Photo90.jpg,Unknown
31.648706436157227,1022.398681640625,35.23320770263672,0,0,0,0,320.2433744641342,329.09122542063085,72.15985575091752,33.23928451538086,-5.900118827819824,-36.00699996948242,0.019638117402791977,0.028649523854255676,0.010478964075446129,0.0017787627875804901,0.0015631988644599915,-0.00030114129185676575,2026-04-30 16:34:49.376779,-30.091555744606172,-84.9997610447849,434.49445536995427,7.64964337318361,,
31.61314582824707,1022.3896484375,35.33111572265625,0,0,0,0,319.7627921088484,329.0215438307184,72.75591952959536,33.22040557861328,-5.807941913604736,-35.7075309753418,0.018668334931135178,0.028649523854255676,0.011210055090487003,-0.0034326650202274323,-0.0014587268233299255,0.0009939800947904587,2026-04-30 16:34:51.119385,-30.136631226503415,-84.95068776031455,434.4945277645447,7.649633305650356,,
31.70204734802246,1022.385009765625,35.227088928222656,0,0,0,0,319.67894812169186,328.9417535608343,72.36433795428935,33.202449798583984,-5.849831581115723,-35.36932373046875,0.01575898379087448,0.027921147644519806,0.009991570375859737,-0.0003349483013153076,-0.00023677200078964233,0.0015240367501974106,2026-04-30 16:34:52.880281,-30.226716172953722,-84.85239649941734,434.49463977974665,7.649620838710895,,
31.63092613220215,1022.405029296875,35.54834747314453,0,0,0,0,319.9208973277558,328.88893229288794,72.51050400252763,33.01060104370117,-5.841947078704834,-35.390438079833984,0.018668334931135178,0.028163937851786613,0.010478964075446129,-0.003084655851125717,0.0030185431241989136,-0.0003677345812320709,2026-04-30 16:34:54.750761,-30.316712707614837,-84.75391159522502,434.49470815149743,7.6496058613356155,,
31.71982765197754,1022.3505859375,35.297462463378906,0,0,0,0,319.7578436367947,329.00325599921564,72.54630102396766,33.004547119140625,-5.724651336669922,-35.376773834228516,0.018668334931135178,0.029377900063991547,0.008773086592555046,0.0005476139485836029,-6.876140832901001e-05,-0.00030426308512687683,2026-04-30 16:34:56.487009,-30.406620362301485,-84.65523218144993,434.49473294628115,7.649590920605154,,
31.577585220336914,1022.40380859375,35.21791076660156,0,0,0,0,319.8332557554208,328.96414633602814,72.37134572837779,33.41779327392578,-5.779545783996582,-35.62644958496094,0.018183445557951927,0.02913510985672474,0.009504176676273346,0.0005706772208213806,-0.0012800917029380798,0.000601939857006073,2026-04-30 16:34:58.221008,-30.49643866677686,-84.55635739014052,434.4947142308565,7.649576017178052,,
31.71982765197754,1022.3779296875,35.18731689453125,0,0,0,0,319.78716905399614,329.1095815540252,72.30846700687864,33.35584259033203,-5.651233196258545,-36.16700744628906,0.018910780549049377,0.028649523854255676,0.005848724395036697,-0.0002682916820049286,0.0026087090373039246,0.00057181715965271,2026-04-30 16:35:00.084711,-30.54131416517243,-84.50684645622877,434.49468857775264,7.649566073996242,,
31.648706436157227,1022.376220703125,35.25156784057617,0,0,0,0,319.9313338568076,329.0934896283407,72.06426042329402,33.27054977416992,-5.547495365142822,-36.25736999511719,0.019638117402791977,0.030349070206284523,0.006092421244829893,0.003282148391008377,-0.0005103722214698792,0.0005838759243488312,2026-04-30 16:35:01.845567,-30.630997558120608,-84.4076769676283,434.4946047227777,7.64955373179284,,
31.61314582824707,1022.419677734375,35.165897369384766,0,0,0,0,319.72835087995855,329.010642848803,72.15487654301258,33.48872756958008,-5.581888675689697,-35.51641845703125,0.01745610684156418,0.02913510985672474,0.0065798149444162846,0.00022247806191444397,-0.001358218491077423,0.00027584098279476166,2026-04-30 16:35:03.589778,-30.720590416217266,-84.30830992446175,434.4944775256645,7.649538921822037,Photo99.jpg,Unknown
31.648706436157227,1022.43701171875,35.2117919921875,0,0,0,0,319.49766124074137,328.83209145861514,72.38948671081334,33.52238082885742,-5.6364850997924805,-35.43740463256836,0.019880564883351326,0.03059186413884163,0.009016782976686954,0.0014932043850421906,-0.0007335245609283447,-0.0012386105954647064,2026-04-30 16:35:05.474588,-30.81009226195973,-84.20874445308236,434.49430705412124,7.649524149585261,,
31.61314582824707,1022.395263671875,35.11082458496094,0,0,0,0,319.3252536057119,328.73474077237495,72.41966931675563,33.227725982666016,-5.843122959136963,-35.82774353027344,0.018183445557951927,0.02913510985672474,0.007067208644002676,-0.0006277896463871002,-0.002477221190929413,-0.0006961952894926071,2026-04-30 16:35:07.214395,-30.899502615749608,-84.10897967824059,434.4940933761154,7.649509415584272,,
31.684267044067383,1022.4052734375,35.26686477661133,0,0,0,0,319.3762853640957,328.86342153633797,72.58554046074939,33.06666564941406,-5.678889274597168,-36.135162353515625,0.018668334931135178,0.02840672992169857,0.008773086592555046,0.00107637420296669,0.0008752346038818359,-0.0012763068079948425,2026-04-30 16:35:08.949882,-30.9441733327101,-84.05902227807427,434.4939703559985,7.649499599698987,,
31.63092613220215,1022.4150390625,35.11082458496094,0,0,0,0,319.4546481244432,328.758769377875,72.52462883373121,33.25825500488281,-5.553279399871826,-36.56471252441406,0.018668334931135178,0.02913510985672474,0.008041995577514172,-0.0006864666938781738,-7.302314043045044e-05,0.0005252081900835037,2026-04-30 16:35:10.793266,-31.033445544703607,-83.95895690349026,434.49369199630837,7.649487386123568,,
31.71982765197754,1022.413818359375,35.199554443359375,0,0,0,0,319.20908233321376,328.72753492280054,72.53537955148481,33.42469787597656,-5.433506488800049,-36.809932708740234,0.019153228029608727,0.02913510985672474,0.011210055090487003,-0.0018881633877754211,0.0019889473915100098,0.000505499541759491,2026-04-30 16:35:12.519882,-31.122625056495238,-83.8586900304188,434.493370601218,7.649472748030125,,
31.684267044067383,1022.40576171875,35.33111572265625,0,0,0,0,319.14094778114827,328.7713130202858,72.76459386984128,33.441795349121094,-5.601681232452393,-36.08820343017578,0.018910780549049377,0.030834658071398735,0.011210055090487003,0.0017610527575016022,0.0010772794485092163,-0.0006491746753454208,2026-04-30 16:35:14.257549,-31.21171138106064,-83.75822077812664,434.4930062396188,7.649458148853632,,
31.648706436157227,1022.3896484375,35.12306213378906,0,0,0,0,319.26307497860273,328.89769884068767,72.73637152819077,33.208553314208984,-5.533962249755859,-35.309661865234375,0.01600143127143383,0.028892317786812782,0.012428538873791695,0.002031039446592331,-0.0013704150915145874,0.0005745552480220795,2026-04-30 16:35:16.100769,-31.256219445351984,-83.70790998412427,434.4928079679703,7.649448434842329,,
31.666486740112305,1022.40771484375,35.00373840332031,0,0,0,0,319.28377045178786,328.68528678768945,72.76539300197416,33.209049224853516,-5.524555206298828,-35.28480911254883,0.018910780549049377,0.027435559779405594,0.00341175589710474,0.0016724653542041779,0.00017632544040679932,0.0008329004049301147,2026-04-30 16:35:17.828661,-31.345165071213028,-83.60713550827688,434.49237928632374,7.649436323244557,,
31.648706436157227,1022.401611328125,35.141422271728516,0,0,0,0,319.0679945306234,328.53794253181934,73.07596853372381,33.38928985595703,-5.636353492736816,-35.964969635009766,0.01745610684156418,0.029620693996548653,0.01096635777503252,0.0030687078833580017,-0.0001112222671508789,-0.000973191112279892,2026-04-30 16:35:19.557616,-31.434016282882336,-83.50615644470089,434.49190781150355,7.649421821951724,Photo108.jpg,Unknown
31.70204734802246,1022.392333984375,34.85993576049805,0,0,0,0,319.4318523680883,328.73054703622455,72.62985472808442,33.19877624511719,-5.6688232421875,-36.161781311035156,0.01721366122364998,0.027192767709493637,0.0065798149444162846,-1.5273690223693848e-06,0.0015992000699043274,-0.0006289519369602203,2026-04-30 16:35:21.394799,-31.522772585785994,-83.40497190735834,434.4913936132916,7.649407360426068,,
31.70204734802246,1022.3994140625,35.13530349731445,0,0,0,0,319.2809290930931,328.4583537525158,72.49339437865675,33.212276458740234,-5.196212291717529,-36.349525451660156,0.018668334931135178,0.03059186413884163,0.009991570375859737,0.002464812248945236,0.0012484043836593628,-0.0009220913052558899,2026-04-30 16:35:23.129852,-31.56711499130003,-83.3543023087356,434.4911205147864,7.649397750141383,,
31.737607955932617,1022.4130859375,35.116943359375,0,0,0,0,318.924594708999,328.23309411368876,72.56951000676737,33.14732360839844,-5.06230354309082,-36.17643356323242,0.017940998077392578,0.030349070206284523,0.007798299193382263,-0.0010577738285064697,-0.0008367747068405151,0.0017772018909454346,2026-04-30 16:35:24.874053,-31.655727998958326,-83.25280789620071,434.4905423628752,7.64938574295793,,
31.684267044067383,1022.398681640625,35.138362884521484,0,0,0,0,318.89205227269844,328.3766066334345,72.53581668359169,32.807167053222656,-5.241903781890869,-35.91326141357422,0.017940998077392578,0.02840672992169857,0.0065798149444162846,-0.0010642260313034058,0.0006200596690177917,0.0005488358438014984,2026-04-30 16:35:26.725117,-31.74424485185637,-83.15110578839085,434.489921663122,7.649371381318731,,
31.737607955932617,1022.41015625,35.33723449707031,0,0,0,0,318.82686153216525,328.29339785387083,72.74717688745774,32.804901123046875,-5.528906345367432,-36.10772705078125,0.01769855059683323,0.029377900063991547,0.010478964075446129,0.0007426440715789795,0.001220211386680603,-0.0009879618883132935,2026-04-30 16:35:28.477620,-31.832665047746833,-83.04919509417564,434.4892584861882,7.6493570600004155,,
31.70204734802246,1022.42138671875,34.927249908447266,0,0,0,0,318.9475031634752,328.4257327690398,72.5935317820783,32.942081451416016,-5.611450672149658,-36.39106369018555,0.017940998077392578,0.028163937851786613,0.010478964075446129,3.314018249511719e-05,0.00123518705368042,0.0011290144175291061,2026-04-30 16:35:30.214513,-31.920988082167824,-82.94707492100534,434.48855290297706,7.649342779511332,,
31.79094886779785,1022.39892578125,35.071048736572266,0,0,0,0,318.82930332479356,328.5395817772202,72.47920124556146,32.85306167602539,-5.600093841552734,-36.464515686035156,0.018183445557951927,0.03059186413884163,0.008529389277100563,0.0006060861051082611,0.00450722873210907,-0.0024945009499788284,2026-04-30 16:35:32.058460,-31.96511300557435,-82.89593600050868,434.488184231237,7.649333305522887,,
31.61314582824707,1022.41162109375,35.080230712890625,0,0,0,0,318.7124114673379,328.77685913389183,72.64511337069024,33.03910827636719,-5.365298271179199,-36.6314697265625,0.018425889313220978,0.028163937851786613,0.00682351179420948,-0.00025396421551704407,-0.0013109594583511353,0.0015131831169128418,2026-04-30 16:35:33.786156,-32.053289347052235,-82.79349993233626,434.4874151720878,7.649321435264904,,
31.71982765197754,1022.40771484375,35.377010345458984,0,0,0,0,318.65320055742313,328.61143536728866,72.93219988188422,33.135868072509766,-5.489964008331299,-36.74678039550781,0.018910780549049377,0.0276783537119627,0.008041995577514172,-0.0006019659340381622,-0.0010387897491455078,-0.0009336434304714203,2026-04-30 16:35:35.528685,-32.14136725614539,-82.69085214776653,434.4866038849832,7.649307257342149,Photo117.jpg,Unknown
31.63092613220215,1022.410888671875,35.00373840332031,0,0,0,0,318.94056710637307,328.4109283340138,72.56727653490877,32.9261360168457,-5.686625003814697,-36.796592712402344,0.01721366122364998,0.029620693996548653,0.009260480292141438,0.001849144697189331,-0.0013244152069091797,0.000885864719748497,2026-04-30 16:35:37.366812,-32.22934622055862,-82.58799174945494,434.48575044167956,7.649293120607545,,
31.755388259887695,1022.41650390625,34.8354606628418,0,0,0,0,318.6633365581514,328.3446754990647,72.85512119710062,32.8129768371582,-5.561723709106445,-36.981163024902344,0.018425889313220978,0.030106279999017715,0.009016782976686954,-0.0002644844353199005,-0.0003820359706878662,0.0005727466195821762,2026-04-30 16:35:39.103832,-32.27329843780014,-82.53648153935724,434.48530793394457,7.649283755103284,,
31.684267044067383,1022.410400390625,35.043514251708984,0,0,0,0,318.62734146122546,328.50157860467823,72.94736973203081,32.65529251098633,-5.353758335113525,-37.37815856933594,0.019153228029608727,0.029620693996548653,0.009504176676273346,0.0006044544279575348,-0.0010221004486083984,-4.0665268898010254e-05,2026-04-30 16:35:40.836618,-32.36112801969149,-82.43330053499132,434.4843913913919,7.649271993677494,,
31.773168563842773,1022.421142578125,35.01597595214844,0,0,0,0,318.354881800139,328.4757331688589,73.17814133351803,32.818565368652344,-5.293082237243652,-37.234703063964844,0.018668334931135178,0.031563032418489456,0.011941145174205303,-0.001512032002210617,0.0025731250643730164,-1.7980113625526428e-05,2026-04-30 16:35:42.668138,-32.44885736625223,-82.32990466772702,434.4834328730685,7.64925796153429,,
31.71982765197754,1022.399169921875,35.352535247802734,0,0,0,0,318.5103710565944,328.6010022533315,72.84484859258892,33.001094818115234,-5.413812637329102,-37.20637893676758,0.018425889313220978,0.027435559779405594,0.007310905493795872,-0.0011418089270591736,0.0012922510504722595,0.00029418058693408966,2026-04-30 16:35:44.400867,-32.53648595723138,-82.22629303565137,434.4824324515457,7.649243971591557,,
31.755388259887695,1022.4150390625,35.410667419433594,0,0,0,0,318.5130314152761,328.6938757505707,72.80582089167147,33.03038787841797,-5.632357120513916,-37.56632995605469,0.018668334931135178,0.0313202403485775,0.008773086592555046,0.0012153983116149902,0.0012275651097297668,-0.0006212051957845688,2026-04-30 16:35:46.130802,-32.58026230617187,-82.17440602561695,434.4819165498302,7.649234716450517,,
31.71982765197754,1022.428466796875,35.046573638916016,0,0,0,0,318.51083550945793,328.8848444246697,72.7349303582759,32.7842903137207,-5.606656074523926,-37.28669357299805,0.017940998077392578,0.0276783537119627,0.005361330695450306,0.00029489025473594666,-0.0012654811143875122,0.0012065116316080093,2026-04-30 16:35:47.984274,-32.667738783283816,-82.07046905249862,434.48085341010756,7.649223066122546,,
31.844287872314453,1022.416015625,34.90888977050781,0,0,0,0,318.56109545646547,328.9236672199121,72.57756279979881,32.84056091308594,-5.876657485961914,-37.33447265625,0.017940998077392578,0.027921147644519806,0.011453751474618912,-0.0021010898053646088,-0.00039602071046829224,2.0345672965049744e-05,2026-04-30 16:35:49.717392,-32.755113194120455,-81.96631405433983,434.47974854965196,7.649209182578219,,
31.70204734802246,1022.406494140625,35.13224411010742,0,0,0,0,318.7259830532188,328.9439836175983,72.23303439768503,32.990909576416016,-5.979257583618164,-37.256980895996094,0.018183445557951927,0.029620693996548653,0.008285692892968655,0.0018962062895298004,0.0001864507794380188,-0.0008968561887741089,2026-04-30 16:35:51.453735,-32.842385010353624,-81.86194012493635,434.478602041846,7.649195341944698,Photo126.jpg,Unknown
31.71982765197754,1022.40771484375,35.05881118774414,0,0,0,0,318.2946463618487,328.94029873054103,72.60655012263635,32.85627365112305,-5.746673583984375,-36.73191452026367,0.019153228029608727,0.0276783537119627,0.006092421244829893,-0.000270891934633255,0.0014343932271003723,0.0018345993012189865,2026-04-30 16:35:53.292823,-32.92955370132277,-81.75734635690789,434.4774139603105,7.64918154436648,,
31.773168563842773,1022.41455078125,34.96702575683594,0,0,0,0,318.31556381618185,329.07514374023003,72.77856160669394,32.83378601074219,-5.466757297515869,-36.46205520629883,0.019638117402791977,0.028649523854255676,0.0065798149444162846,-0.001483861356973648,-0.000100649893283844,0.0017831474542617798,2026-04-30 16:35:55.026635,-32.97309920836301,-81.70496674953343,434.4768043524573,7.649172434404803,,
31.808727264404297,1022.399169921875,35.00373840332031,0,0,0,0,318.4255674278595,328.95562909013313,72.64274329504825,32.657108306884766,-5.096024990081787,-36.5696907043457,0.01697121374309063,0.0276783537119627,0.011453751474618912,0.0009408630430698395,-0.0004039481282234192,0.0014754720032215118,2026-04-30 16:35:56.762510,-33.060112211328295,-81.60004151970645,434.47555404884133,7.649160929793922,,
31.755388259887695,1022.416015625,34.774269104003906,0,0,0,0,318.2024285627698,328.913018954996,72.86507278272133,32.73125457763672,-4.962408065795898,-36.349876403808594,0.018910780549049377,0.02986348792910576,0.01096635777503252,0.0017302893102169037,0.0020042359828948975,-0.0012496691197156906,2026-04-30 16:35:58.600397,-33.147020752121136,-81.49489417781385,434.4742623565053,7.649147241186807,,
31.71982765197754,1022.435546875,34.96090316772461,0,0,0,0,318.3535430830617,328.9073089168499,72.7896401735277,32.816688537597656,-4.81739616394043,-36.972381591796875,0.019153228029608727,0.029620693996548653,0.013159629888832569,0.0004655495285987854,0.0010718032717704773,-0.0011670775711536407,2026-04-30 16:36:00.335005,-33.23382429184782,-81.3895238125508,434.47292934983943,7.649133596689514,,
31.755388259887695,1022.426025390625,34.97314453125,0,0,0,0,318.529680001378,328.7824633041058,72.46587554649076,32.815101623535156,-4.986104965209961,-37.033966064453125,0.01769855059683323,0.029377900063991547,0.009747873991727829,0.0012958087027072906,0.002191968262195587,-0.0002883411943912506,2026-04-30 16:36:02.088296,-33.27718651725846,-81.33675471108131,434.4722473769398,7.649124601593516,,
31.71982765197754,1022.438720703125,35.00373840332031,0,0,0,0,318.3668107255245,328.8322144020202,72.62912389784324,32.8487548828125,-5.130257606506348,-36.963741302490234,0.018668334931135178,0.029620693996548653,0.009016782976686954,7.973983883857727e-05,0.0006260126829147339,0.0009266268461942673,2026-04-30 16:36:03.951230,-33.36383153976415,-81.2310480997531,434.47085253874957,7.6491132126929235,,
31.70204734802246,1022.429931640625,34.91807174682617,0,0,0,0,318.00646019019837,328.99211937577394,72.94275935434105,32.882972717285156,-5.0998735427856445,-37.02440643310547,0.018183445557951927,0.028163937851786613,0.009747873991727829,0.0003802776336669922,0.0006590783596038818,-0.00024177879095077515,2026-04-30 16:36:05.685259,-33.450370203560425,-81.12511618220682,434.46941657316984,7.649099678979637,,
31.86206817626953,1022.43603515625,35.08634948730469,0,0,0,0,318.0163537192111,328.9781174879754,72.72310047063344,32.82828903198242,-4.99939489364624,-36.73872375488281,0.018183445557951927,0.02986348792910576,0.008285692892968655,-0.0011762604117393494,0.00034005194902420044,-0.002022426575422287,2026-04-30 16:36:07.436366,-33.53680196139992,-81.01895804353259,434.46793955534486,7.64908618999828,Photo135.jpg,Unknown
31.737607955932617,1022.458251953125,34.97926330566406,0,0,0,0,318.0801032898294,329.3013288696896,73.06422060835139,32.72817611694336,-5.21807336807251,-36.789390563964844,0.019638117402791977,0.02840672992169857,0.007310905493795872,-0.0005869679152965546,0.0002986714243888855,0.001953810453414917,2026-04-30 16:36:09.274934,-33.623126263627974,-80.9125727678576,434.46642156064445,7.649072745940788,,
31.773168563842773,1022.4228515625,34.95478439331055,0,0,0,0,318.13091989725433,329.1315747631527,73.1869181266015,32.617977142333984,-5.440083980560303,-36.42121124267578,0.019153228029608727,0.028163937851786613,0.007310905493795872,0.001489344984292984,0.002621762454509735,8.86227935552597e-05,2026-04-30 16:36:11.011127,-33.666247946459166,-80.85929466717653,434.4656472205734,7.649063901875752,,
31.79094886779785,1022.429931640625,34.89971160888672,0,0,0,0,318.24204365995587,329.2240213735688,72.86558504690908,32.9699821472168,-5.332353591918945,-36.899288177490234,0.01769855059683323,0.029377900063991547,0.008529389277100563,-0.0011474639177322388,0.0013135522603988647,0.0018941126763820648,2026-04-30 16:36:12.747263,-33.752410029373216,-80.75256696668572,434.4640679023214,7.649052664567547,,
31.684267044067383,1022.422607421875,34.95784378051758,0,0,0,0,318.21226745026917,329.02160871751545,72.91806139030228,32.86304473876953,-5.437239170074463,-37.45486831665039,0.018183445557951927,0.031077450141310692,0.007310905493795872,0.00031426921486854553,9.58070158958435e-05,0.00032834336161613464,2026-04-30 16:36:14.589383,-33.83846327193693,-80.64560983545309,434.46244779651806,7.649039333911023,,
31.844287872314453,1022.402099609375,35.104705810546875,0,0,0,0,317.95031603522085,328.9965999798695,73.15686529425345,32.555870056152344,-5.437199115753174,-37.20490264892578,0.017940998077392578,0.02840672992169857,0.008529389277100563,0.001459617167711258,0.001295521855354309,-0.0002785511314868927,2026-04-30 16:36:16.327577,-33.92440711599006,-80.53842235443898,434.4607869792608,7.649026049048557,,
31.808727264404297,1022.405029296875,34.91501235961914,0,0,0,0,317.7725125507471,328.8258691562812,73.0259305678643,32.676727294921875,-5.304864406585693,-37.036163330078125,0.018425889313220978,0.030349070206284523,0.011453751474618912,0.001207049936056137,0.0003788396716117859,-2.91336327791214e-05,2026-04-30 16:36:18.069621,-33.96733783847916,-80.4847419453372,434.4599413276701,7.649017324356384,,
31.755388259887695,1022.418701171875,34.97620391845703,0,0,0,0,317.9483250350778,328.9915388096945,72.66707242887183,32.753623962402344,-5.290022373199463,-36.99192428588867,0.01769855059683323,0.030106279999017715,0.010722661390900612,0.001156780868768692,0.0002695620059967041,-0.0006284937262535095,2026-04-30 16:36:19.917120,-34.053116532849366,-80.3772072146356,434.4582195863504,7.649006207685609,,
31.808727264404297,1022.4375,35.18119812011719,0,0,0,0,317.8924677480454,328.8555121772791,72.81852504352769,32.7325553894043,-5.52699613571167,-36.82861328125,0.020123012363910675,0.02840672992169857,0.009747873991727829,0.00016482919454574585,-0.0017951875925064087,0.002065768465399742,2026-04-30 16:36:21.650520,-34.138784422561145,-80.26943983296376,434.4564573246962,7.648993037762602,,
31.71982765197754,1022.44189453125,34.798744201660156,0,0,0,0,317.64234280554496,328.88551378320835,72.73333892419929,32.949771881103516,-5.4178314208984375,-36.90769577026367,0.020365456119179726,0.02913510985672474,0.009016782976686954,-0.0006424002349376678,0.0024217143654823303,-0.0009790156036615372,2026-04-30 16:36:23.384744,-34.22434094083341,-80.16143887848527,434.4546546195097,7.6489799145703925,Photo144.jpg,Unknown
31.808727264404297,1022.452880859375,35.08634948730469,0,0,0,0,317.6068428973338,328.9683673929352,72.65989390005414,33.157806396484375,-4.986106872558594,-36.84749221801758,0.018910780549049377,0.031077450141310692,0.004142846446484327,-0.0015162453055381775,0.002337247133255005,-4.3800100684165955e-05,2026-04-30 16:36:25.222948,-34.30978551840003,-80.05320342864108,434.45281154780423,7.648966838049255,,
31.684267044067383,1022.447998046875,35.141422271728516,0,0,0,0,317.4415659797979,328.9187119176692,73.17585322014608,32.943443298339844,-4.837090969085693,-37.00288772583008,0.018425889313220978,0.029620693996548653,0.005605027545243502,0.0009270794689655304,0.0011075958609580994,0.0002592839300632477,2026-04-30 16:36:26.958024,-34.35246565084181,-79.99899747946591,434.45187489861655,7.648958270672248,,
31.755388259887695,1022.4716796875,35.04045486450195,0,0,0,0,317.57017161168005,329.0487245685204,72.85403519702258,32.97840881347656,-5.0260210037231445,-37.24068069458008,0.01721366122364998,0.029620693996548653,0.009991570375859737,5.82672655582428e-05,-0.00017083436250686646,-0.000593842938542366,2026-04-30 16:36:28.688217,-34.43774124451983,-79.89040855526413,434.4499714219228,7.648947311360014,,
